header:
  stamp:
    sec: 1744977443
    nanosec: 648891541
  frame_id: ''
state:
  temp_fet: 0.0
  temp_motor: 0.0
  current_motor: 0.0
  current_input: 0.0
  avg_id: 0.0
  avg_iq: 0.0
  duty_cycle: 0.0
  speed: 0.0
  voltage_input: 12.2
  charge_drawn: 0.2105
  charge_regen: 0.0001
  energy_drawn: 2.5449
  energy_regen: 0.0014
  displacement: 38336
  distance_traveled: 44018
  fault_code: 0
  pid_pos_now: 315.007008
  controller_id: 19
  ntc_temp_mos1: 0.0
  ntc_temp_mos2: 0.0
  ntc_temp_mos3: 0.0
  avg_vd: 0.005
  avg_vq: 0.003
---
header:
  stamp:
    sec: 1744977443
    nanosec: 668569646
  frame_id: ''
state:
  temp_fet: 0.0
  temp_motor: 0.0
  current_motor: 0.0
  current_input: 0.0
  avg_id: 0.0
  avg_iq: 0.0
  duty_cycle: 0.001
  speed: 0.0
  voltage_input: 12.2
  charge_drawn: 0.2105
  charge_regen: 0.0001
  energy_drawn: 2.5449
  energy_regen: 0.0014
  displacement: 38336
  distance_traveled: 44018
  fault_code: 0
  pid_pos_now: 315.049728
  controller_id: 19
  ntc_temp_mos1: 0.0
  ntc_temp_mos2: 0.0
  ntc_temp_mos3: 0.0
  avg_vd: 0.005
  avg_vq: 0.003
---
header:
  stamp:
    sec: 1744977443
    nanosec: 688747245
  frame_id: ''
state:
  temp_fet: 0.0
  temp_motor: 0.0
  current_motor: 0.0
  current_input: 0.0
  avg_id: 0.0
  avg_iq: 0.0
  duty_cycle: 0.001
  speed: 0.0
  voltage_input: 12.2
  charge_drawn: 0.2105
  charge_regen: 0.0001
  energy_drawn: 2.5449
  energy_regen: 0.0014
  displacement: 38336
  distance_traveled: 44018
  fault_code: 0
  pid_pos_now: 315.077408
  controller_id: 19
  ntc_temp_mos1: 0.0
  ntc_temp_mos2: 0.0
  ntc_temp_mos3: 0.0
  avg_vd: 0.006
  avg_vq: 0.004
---
header:
  stamp:
    sec: 1744977443
    nanosec: 713936244
  frame_id: ''
state:
  temp_fet: 0.0
  temp_motor: 0.0
  current_motor: 0.0
  current_input: 0.0
  avg_id: 0.0
  avg_iq: 0.0
  duty_cycle: 0.0
  speed: 0.0
  voltage_input: 12.2
  charge_drawn: 0.2105
  charge_regen: 0.0001
  energy_drawn: 2.5449
  energy_regen: 0.0014
  displacement: 38336
  distance_traveled: 44018
  fault_code: 0
  pid_pos_now: 314.990432
  controller_id: 19
  ntc_temp_mos1: 0.0
  ntc_temp_mos2: 0.0
  ntc_temp_mos3: 0.0
  avg_vd: 0.007
  avg_vq: 0.004
---
header:
  stamp:
    sec: 1744977443
    nanosec: 733484907
  frame_id: ''
state:
  temp_fet: 0.0
  temp_motor: 0.0
  current_motor: 0.0
  current_input: 0.0
  avg_id: 0.0
  avg_iq: 0.0
  duty_cycle: 0.0
  speed: 0.0
  voltage_input: 12.2
  charge_drawn: 0.2105
  charge_regen: 0.0001
  energy_drawn: 2.5449
  energy_regen: 0.0014
  displacement: 38336
  distance_traveled: 44018
  fault_code: 0
  pid_pos_now: 315.01104
  controller_id: 19
  ntc_temp_mos1: 0.0
  ntc_temp_mos2: 0.0
  ntc_temp_mos3: 0.0
  avg_vd: 0.007
  avg_vq: 0.004
---
header:
  stamp:
    sec: 1744977443
    nanosec: 748213373
  frame_id: ''
state:
  temp_fet: 0.0
  temp_motor: 0.0
  current_motor: 0.0
  current_input: 0.0
  avg_id: 0.0
  avg_iq: 0.0
  duty_cycle: 0.001
  speed: 0.0
  voltage_input: 12.2
  charge_drawn: 0.2105
  charge_regen: 0.0001
  energy_drawn: 2.5449
  energy_regen: 0.0014
  displacement: 38336
  distance_traveled: 44018
  fault_code: 0
  pid_pos_now: 315.0
  controller_id: 19
  ntc_temp_mos1: 0.0
  ntc_temp_mos2: 0.0
  ntc_temp_mos3: 0.0
  avg_vd: 0.006
  avg_vq: 0.004
---
header:
  stamp:
    sec: 1744977443
    nanosec: 768233210
  frame_id: ''
state:
  temp_fet: 0.0
  temp_motor: 0.0
  current_motor: 0.0
  current_input: 0.0
  avg_id: 0.0
  avg_iq: 0.0
  duty_cycle: 0.001
  speed: 0.0
  voltage_input: 12.2
  charge_drawn: 0.2105
  charge_regen: 0.0001
  energy_drawn: 2.5449
  energy_regen: 0.0014
  displacement: 38336
  distance_traveled: 44018
  fault_code: 0
  pid_pos_now: 315.016576
  controller_id: 19
  ntc_temp_mos1: 0.0
  ntc_temp_mos2: 0.0
  ntc_temp_mos3: 0.0
  avg_vd: 0.005
  avg_vq: 0.003
---
header:
  stamp:
    sec: 1744977443
    nanosec: 788147062
  frame_id: ''
state:
  temp_fet: 0.0
  temp_motor: 0.0
  current_motor: 0.0
  current_input: 0.0
  avg_id: 0.0
  avg_iq: 0.0
  duty_cycle: 0.0
  speed: 0.0
  voltage_input: 12.2
  charge_drawn: 0.2105
  charge_regen: 0.0001
  energy_drawn: 2.5449
  energy_regen: 0.0014
  displacement: 38336
  distance_traveled: 44018
  fault_code: 0
  pid_pos_now: 315.038688
  controller_id: 19
  ntc_temp_mos1: 0.0
  ntc_temp_mos2: 0.0
  ntc_temp_mos3: 0.0
  avg_vd: 0.005
  avg_vq: 0.004
---
header:
  stamp:
    sec: 1744977443
    nanosec: 813601088
  frame_id: ''
state:
  temp_fet: 0.0
  temp_motor: 0.0
  current_motor: 0.0
  current_input: 0.0
  avg_id: 0.0
  avg_iq: 0.0
  duty_cycle: 0.0
  speed: 0.0
  voltage_input: 12.2
  charge_drawn: 0.2105
  charge_regen: 0.0001
  energy_drawn: 2.5449
  energy_regen: 0.0014
  displacement: 38336
  distance_traveled: 44018
  fault_code: 0
  pid_pos_now: 314.993632
  controller_id: 19
  ntc_temp_mos1: 0.0
  ntc_temp_mos2: 0.0
  ntc_temp_mos3: 0.0
  avg_vd: 0.005
  avg_vq: 0.002
---
header:
  stamp:
    sec: 1744977443
    nanosec: 833396891
  frame_id: ''
state:
  temp_fet: 0.0
  temp_motor: 0.0
  current_motor: 0.0
  current_input: 0.0
  avg_id: 0.0
  avg_iq: 0.0
  duty_cycle: 0.001
  speed: 0.0
  voltage_input: 12.2
  charge_drawn: 0.2105
  charge_regen: 0.0001
  energy_drawn: 2.5449
  energy_regen: 0.0014
  displacement: 38336
  distance_traveled: 44018
  fault_code: 0
  pid_pos_now: 315.0
  controller_id: 19
  ntc_temp_mos1: 0.0
  ntc_temp_mos2: 0.0
  ntc_temp_mos3: 0.0
  avg_vd: 0.005
  avg_vq: 0.002
---
header:
  stamp:
    sec: 1744977443
    nanosec: 853443768
  frame_id: ''
state:
  temp_fet: 0.0
  temp_motor: 0.0
  current_motor: 0.0
  current_input: 0.0
  avg_id: 0.0
  avg_iq: 0.0
  duty_cycle: 0.001
  speed: 0.0
  voltage_input: 12.2
  charge_drawn: 0.2105
  charge_regen: 0.0001
  energy_drawn: 2.5449
  energy_regen: 0.0014
  displacement: 38336
  distance_traveled: 44018
  fault_code: 0
  pid_pos_now: 315.005536
  controller_id: 19
  ntc_temp_mos1: 0.0
  ntc_temp_mos2: 0.0
  ntc_temp_mos3: 0.0
  avg_vd: 0.007
  avg_vq: 0.003
---
header:
  stamp:
    sec: 1744977443
    nanosec: 869040151
  frame_id: ''
state:
  temp_fet: 0.0
  temp_motor: 0.0
  current_motor: 0.0
  current_input: 0.0
  avg_id: 0.0
  avg_iq: 0.0
  duty_cycle: 0.001
  speed: 0.0
  voltage_input: 12.2
  charge_drawn: 0.2105
  charge_regen: 0.0001
  energy_drawn: 2.5449
  energy_regen: 0.0014
  displacement: 38336
  distance_traveled: 44018
  fault_code: 0
  pid_pos_now: 315.0
  controller_id: 19
  ntc_temp_mos1: 0.0
  ntc_temp_mos2: 0.0
  ntc_temp_mos3: 0.0
  avg_vd: 0.006
  avg_vq: 0.004
---
header:
  stamp:
    sec: 1744977443
    nanosec: 888369354
  frame_id: ''
state:
  temp_fet: 0.0
  temp_motor: 0.0
  current_motor: 0.0
  current_input: 0.0
  avg_id: 0.0
  avg_iq: 0.0
  duty_cycle: 0.0
  speed: 0.0
  voltage_input: 12.2
  charge_drawn: 0.2105
  charge_regen: 0.0001
  energy_drawn: 2.5449
  energy_regen: 0.0014
  displacement: 38336
  distance_traveled: 44018
  fault_code: 0
  pid_pos_now: 315.0
  controller_id: 19
  ntc_temp_mos1: 0.0
  ntc_temp_mos2: 0.0
  ntc_temp_mos3: 0.0
  avg_vd: 0.007
  avg_vq: 0.004
---
header:
  stamp:
    sec: 1744977443
    nanosec: 908278246
  frame_id: ''
state:
  temp_fet: 0.0
  temp_motor: 0.0
  current_motor: 0.0
  current_input: 0.0
  avg_id: 0.0
  avg_iq: 0.0
  duty_cycle: 0.001
  speed: 0.0
  voltage_input: 12.2
  charge_drawn: 0.2105
  charge_regen: 0.0001
  energy_drawn: 2.5449
  energy_regen: 0.0014
  displacement: 38336
  distance_traveled: 44018
  fault_code: 0
  pid_pos_now: 315.005536
  controller_id: 19
  ntc_temp_mos1: 0.0
  ntc_temp_mos2: 0.0
  ntc_temp_mos3: 0.0
  avg_vd: 0.006
  avg_vq: 0.004
---
header:
  stamp:
    sec: 1744977443
    nanosec: 928359332
  frame_id: ''
state:
  temp_fet: 0.0
  temp_motor: 0.0
  current_motor: 0.0
  current_input: 0.0
  avg_id: 0.0
  avg_iq: 0.0
  duty_cycle: 0.001
  speed: 0.0
  voltage_input: 12.2
  charge_drawn: 0.2105
  charge_regen: 0.0001
  energy_drawn: 2.5449
  energy_regen: 0.0014
  displacement: 38336
  distance_traveled: 44018
  fault_code: 0
  pid_pos_now: 315.03552
  controller_id: 19
  ntc_temp_mos1: 0.0
  ntc_temp_mos2: 0.0
  ntc_temp_mos3: 0.0
  avg_vd: 0.006
  avg_vq: 0.004
---
header:
  stamp:
    sec: 1744977443
    nanosec: 948465315
  frame_id: ''
state:
  temp_fet: 0.0
  temp_motor: 0.0
  current_motor: 0.0
  current_input: 0.0
  avg_id: 0.0
  avg_iq: 0.0
  duty_cycle: 0.0
  speed: 0.0
  voltage_input: 12.2
  charge_drawn: 0.2105
  charge_regen: 0.0001
  energy_drawn: 2.5449
  energy_regen: 0.0014
  displacement: 38336
  distance_traveled: 44018
  fault_code: 0
  pid_pos_now: 314.993632
  controller_id: 19
  ntc_temp_mos1: 0.0
  ntc_temp_mos2: 0.0
  ntc_temp_mos3: 0.0
  avg_vd: 0.006
  avg_vq: 0.004
---
header:
  stamp:
    sec: 1744977443
    nanosec: 973397862
  frame_id: ''
state:
  temp_fet: 0.0
  temp_motor: 0.0
  current_motor: 0.0
  current_input: 0.0
  avg_id: 0.0
  avg_iq: 0.0
  duty_cycle: 0.001
  speed: 0.0
  voltage_input: 12.2
  charge_drawn: 0.2105
  charge_regen: 0.0001
  energy_drawn: 2.5449
  energy_regen: 0.0014
  displacement: 38336
  distance_traveled: 44018
  fault_code: 0
  pid_pos_now: 315.0
  controller_id: 19
  ntc_temp_mos1: 0.0
  ntc_temp_mos2: 0.0
  ntc_temp_mos3: 0.0
  avg_vd: 0.006
  avg_vq: 0.003
---
header:
  stamp:
    sec: 1744977443
    nanosec: 988372123
  frame_id: ''
state:
  temp_fet: 0.0
  temp_motor: 0.0
  current_motor: 0.0
  current_input: 0.0
  avg_id: 0.0
  avg_iq: 0.0
  duty_cycle: 0.001
  speed: 0.0
  voltage_input: 12.2
  charge_drawn: 0.2105
  charge_regen: 0.0001
  energy_drawn: 2.5449
  energy_regen: 0.0014
  displacement: 38336
  distance_traveled: 44018
  fault_code: 0
  pid_pos_now: 315.01104
  controller_id: 19
  ntc_temp_mos1: 0.0
  ntc_temp_mos2: 0.0
  ntc_temp_mos3: 0.0
  avg_vd: 0.005
  avg_vq: 0.004
---
header:
  stamp:
    sec: 1744977444
    nanosec: 13347647
  frame_id: ''
state:
  temp_fet: 0.0
  temp_motor: 0.0
  current_motor: 0.0
  current_input: 0.0
  avg_id: 0.0
  avg_iq: 0.0
  duty_cycle: 0.001
  speed: 0.0
  voltage_input: 12.2
  charge_drawn: 0.2105
  charge_regen: 0.0001
  energy_drawn: 2.5449
  energy_regen: 0.0014
  displacement: 38336
  distance_traveled: 44018
  fault_code: 0
  pid_pos_now: 315.0
  controller_id: 19
  ntc_temp_mos1: 0.0
  ntc_temp_mos2: 0.0
  ntc_temp_mos3: 0.0
  avg_vd: 0.006
  avg_vq: 0.004
---
header:
  stamp:
    sec: 1744977444
    nanosec: 33735202
  frame_id: ''
state:
  temp_fet: 0.0
  temp_motor: 0.0
  current_motor: 0.0
  current_input: 0.0
  avg_id: 0.0
  avg_iq: 0.0
  duty_cycle: 0.001
  speed: 0.0
  voltage_input: 12.2
  charge_drawn: 0.2105
  charge_regen: 0.0001
  energy_drawn: 2.5449
  energy_regen: 0.0014
  displacement: 38336
  distance_traveled: 44018
  fault_code: 0
  pid_pos_now: 315.033184
  controller_id: 19
  ntc_temp_mos1: 0.0
  ntc_temp_mos2: 0.0
  ntc_temp_mos3: 0.0
  avg_vd: 0.006
  avg_vq: 0.003
---
header:
  stamp:
    sec: 1744977444
    nanosec: 48186608
  frame_id: ''
state:
  temp_fet: 0.0
  temp_motor: 0.0
  current_motor: 0.0
  current_input: 0.0
  avg_id: 0.0
  avg_iq: 0.0
  duty_cycle: 0.001
  speed: 0.0
  voltage_input: 12.2
  charge_drawn: 0.2105
  charge_regen: 0.0001
  energy_drawn: 2.5449
  energy_regen: 0.0014
  displacement: 38336
  distance_traveled: 44018
  fault_code: 0
  pid_pos_now: 315.005568
  controller_id: 19
  ntc_temp_mos1: 0.0
  ntc_temp_mos2: 0.0
  ntc_temp_mos3: 0.0
  avg_vd: 0.006
  avg_vq: 0.004
---
header:
  stamp:
    sec: 1744977444
    nanosec: 68520498
  frame_id: ''
state:
  temp_fet: 0.0
  temp_motor: 0.0
  current_motor: 0.0
  current_input: 0.0
  avg_id: 0.0
  avg_iq: 0.0
  duty_cycle: 0.0
  speed: 0.0
  voltage_input: 12.2
  charge_drawn: 0.2105
  charge_regen: 0.0001
  energy_drawn: 2.5449
  energy_regen: 0.0014
  displacement: 38336
  distance_traveled: 44018
  fault_code: 0
  pid_pos_now: 315.02208
  controller_id: 19
  ntc_temp_mos1: 0.0
  ntc_temp_mos2: 0.0
  ntc_temp_mos3: 0.0
  avg_vd: 0.006
  avg_vq: 0.003
---
header:
  stamp:
    sec: 1744977444
    nanosec: 94049918
  frame_id: ''
state:
  temp_fet: 0.0
  temp_motor: 0.0
  current_motor: 0.0
  current_input: 0.0
  avg_id: 0.0
  avg_iq: 0.0
  duty_cycle: 0.001
  speed: 0.0
  voltage_input: 12.2
  charge_drawn: 0.2105
  charge_regen: 0.0001
  energy_drawn: 2.5449
  energy_regen: 0.0014
  displacement: 38336
  distance_traveled: 44018
  fault_code: 0
  pid_pos_now: 315.022112
  controller_id: 19
  ntc_temp_mos1: 0.0
  ntc_temp_mos2: 0.0
  ntc_temp_mos3: 0.0
  avg_vd: 0.006
  avg_vq: 0.003
---
header:
  stamp:
    sec: 1744977444
    nanosec: 108298505
  frame_id: ''
state:
  temp_fet: 0.0
  temp_motor: 0.0
  current_motor: 0.0
  current_input: 0.0
  avg_id: 0.0
  avg_iq: 0.0
  duty_cycle: 0.001
  speed: 0.0
  voltage_input: 12.2
  charge_drawn: 0.2105
  charge_regen: 0.0001
  energy_drawn: 2.5449
  energy_regen: 0.0014
  displacement: 38336
  distance_traveled: 44018
  fault_code: 0
  pid_pos_now: 315.016608
  controller_id: 19
  ntc_temp_mos1: 0.0
  ntc_temp_mos2: 0.0
  ntc_temp_mos3: 0.0
  avg_vd: 0.006
  avg_vq: 0.004
---
header:
  stamp:
    sec: 1744977444
    nanosec: 130028926
  frame_id: ''
state:
  temp_fet: 0.0
  temp_motor: 0.0
  current_motor: 0.0
  current_input: 0.0
  avg_id: 0.0
  avg_iq: 0.0
  duty_cycle: 0.001
  speed: 0.0
  voltage_input: 12.2
  charge_drawn: 0.2105
  charge_regen: 0.0001
  energy_drawn: 2.5449
  energy_regen: 0.0014
  displacement: 38336
  distance_traveled: 44018
  fault_code: 0
  pid_pos_now: 314.993632
  controller_id: 19
  ntc_temp_mos1: 0.0
  ntc_temp_mos2: 0.0
  ntc_temp_mos3: 0.0
  avg_vd: 0.006
  avg_vq: 0.003
---
header:
  stamp:
    sec: 1744977444
    nanosec: 148324099
  frame_id: ''
state:
  temp_fet: 0.0
  temp_motor: 0.0
  current_motor: 0.0
  current_input: 0.0
  avg_id: 0.0
  avg_iq: 0.0
  duty_cycle: 0.0
  speed: 0.0
  voltage_input: 12.2
  charge_drawn: 0.2105
  charge_regen: 0.0001
  energy_drawn: 2.5449
  energy_regen: 0.0014
  displacement: 38336
  distance_traveled: 44018
  fault_code: 0
  pid_pos_now: 315.01104
  controller_id: 19
  ntc_temp_mos1: 0.0
  ntc_temp_mos2: 0.0
  ntc_temp_mos3: 0.0
  avg_vd: 0.006
  avg_vq: 0.004
---
header:
  stamp:
    sec: 1744977444
    nanosec: 168390081
  frame_id: ''
state:
  temp_fet: 0.0
  temp_motor: 0.0
  current_motor: 0.0
  current_input: 0.0
  avg_id: 0.0
  avg_iq: 0.0
  duty_cycle: 0.001
  speed: 0.0
  voltage_input: 12.2
  charge_drawn: 0.2105
  charge_regen: 0.0001
  energy_drawn: 2.5449
  energy_regen: 0.0014
  displacement: 38336
  distance_traveled: 44018
  fault_code: 0
  pid_pos_now: 315.0
  controller_id: 19
  ntc_temp_mos1: 0.0
  ntc_temp_mos2: 0.0
  ntc_temp_mos3: 0.0
  avg_vd: 0.006
  avg_vq: 0.003
---
header:
  stamp:
    sec: 1744977444
    nanosec: 188457279
  frame_id: ''
state:
  temp_fet: 0.0
  temp_motor: 0.0
  current_motor: 0.0
  current_input: 0.0
  avg_id: 0.0
  avg_iq: 0.0
  duty_cycle: 0.001
  speed: 0.0
  voltage_input: 12.2
  charge_drawn: 0.2105
  charge_regen: 0.0001
  energy_drawn: 2.5449
  energy_regen: 0.0014
  displacement: 38336
  distance_traveled: 44018
  fault_code: 0
  pid_pos_now: 315.011072
  controller_id: 19
  ntc_temp_mos1: 0.0
  ntc_temp_mos2: 0.0
  ntc_temp_mos3: 0.0
  avg_vd: 0.005
  avg_vq: 0.003
---
header:
  stamp:
    sec: 1744977444
    nanosec: 211082914
  frame_id: ''
state:
  temp_fet: 0.0
  temp_motor: 0.0
  current_motor: 0.0
  current_input: 0.0
  avg_id: 0.0
  avg_iq: 0.0
  duty_cycle: 0.001
  speed: 0.0
  voltage_input: 12.2
  charge_drawn: 0.2105
  charge_regen: 0.0001
  energy_drawn: 2.5449
  energy_regen: 0.0014
  displacement: 38336
  distance_traveled: 44018
  fault_code: 0
  pid_pos_now: 315.0
  controller_id: 19
  ntc_temp_mos1: 0.0
  ntc_temp_mos2: 0.0
  ntc_temp_mos3: 0.0
  avg_vd: 0.007
  avg_vq: 0.004
---
header:
  stamp:
    sec: 1744977444
    nanosec: 233353855
  frame_id: ''
state:
  temp_fet: 0.0
  temp_motor: 0.0
  current_motor: 0.0
  current_input: 0.0
  avg_id: 0.0
  avg_iq: 0.0
  duty_cycle: 0.001
  speed: 0.0
  voltage_input: 12.2
  charge_drawn: 0.2105
  charge_regen: 0.0001
  energy_drawn: 2.5449
  energy_regen: 0.0014
  displacement: 38336
  distance_traveled: 44018
  fault_code: 0
  pid_pos_now: 315.02208
  controller_id: 19
  ntc_temp_mos1: 0.0
  ntc_temp_mos2: 0.0
  ntc_temp_mos3: 0.0
  avg_vd: 0.006
  avg_vq: 0.004
---
header:
  stamp:
    sec: 1744977444
    nanosec: 253202170
  frame_id: ''
state:
  temp_fet: 0.0
  temp_motor: 0.0
  current_motor: 0.0
  current_input: 0.0
  avg_id: 0.0
  avg_iq: 0.0
  duty_cycle: 0.0
  speed: 0.0
  voltage_input: 12.2
  charge_drawn: 0.2105
  charge_regen: 0.0001
  energy_drawn: 2.5449
  energy_regen: 0.0014
  displacement: 38336
  distance_traveled: 44018
  fault_code: 0
  pid_pos_now: 315.005536
  controller_id: 19
  ntc_temp_mos1: 0.0
  ntc_temp_mos2: 0.0
  ntc_temp_mos3: 0.0
  avg_vd: 0.006
  avg_vq: 0.003
---
header:
  stamp:
    sec: 1744977444
    nanosec: 273307320
  frame_id: ''
state:
  temp_fet: 0.0
  temp_motor: 0.0
  current_motor: 0.0
  current_input: 0.0
  avg_id: 0.0
  avg_iq: 0.0
  duty_cycle: 0.0
  speed: 0.0
  voltage_input: 12.2
  charge_drawn: 0.2105
  charge_regen: 0.0001
  energy_drawn: 2.5449
  energy_regen: 0.0014
  displacement: 38336
  distance_traveled: 44018
  fault_code: 0
  pid_pos_now: 315.0
  controller_id: 19
  ntc_temp_mos1: 0.0
  ntc_temp_mos2: 0.0
  ntc_temp_mos3: 0.0
  avg_vd: 0.006
  avg_vq: 0.004
---
header:
  stamp:
    sec: 1744977444
    nanosec: 293355030
  frame_id: ''
state:
  temp_fet: 0.0
  temp_motor: 0.0
  current_motor: 0.0
  current_input: 0.0
  avg_id: 0.0
  avg_iq: 0.0
  duty_cycle: 0.0
  speed: 0.0
  voltage_input: 12.2
  charge_drawn: 0.2105
  charge_regen: 0.0001
  energy_drawn: 2.5449
  energy_regen: 0.0014
  displacement: 38336
  distance_traveled: 44018
  fault_code: 0
  pid_pos_now: 315.005536
  controller_id: 19
  ntc_temp_mos1: 0.0
  ntc_temp_mos2: 0.0
  ntc_temp_mos3: 0.0
  avg_vd: 0.006
  avg_vq: 0.003
---
header:
  stamp:
    sec: 1744977444
    nanosec: 308319051
  frame_id: ''
state:
  temp_fet: 0.0
  temp_motor: 0.0
  current_motor: 0.0
  current_input: 0.0
  avg_id: 0.0
  avg_iq: 0.0
  duty_cycle: 0.001
  speed: 0.0
  voltage_input: 12.2
  charge_drawn: 0.2105
  charge_regen: 0.0001
  energy_drawn: 2.5449
  energy_regen: 0.0014
  displacement: 38336
  distance_traveled: 44018
  fault_code: 0
  pid_pos_now: 315.0
  controller_id: 19
  ntc_temp_mos1: 0.0
  ntc_temp_mos2: 0.0
  ntc_temp_mos3: 0.0
  avg_vd: 0.006
  avg_vq: 0.003
---
header:
  stamp:
    sec: 1744977444
    nanosec: 328252872
  frame_id: ''
state:
  temp_fet: 0.0
  temp_motor: 0.0
  current_motor: 0.0
  current_input: 0.0
  avg_id: 0.0
  avg_iq: 0.0
  duty_cycle: 0.001
  speed: 0.0
  voltage_input: 12.2
  charge_drawn: 0.2105
  charge_regen: 0.0001
  energy_drawn: 2.5449
  energy_regen: 0.0014
  displacement: 38336
  distance_traveled: 44018
  fault_code: 0
  pid_pos_now: 315.016576
  controller_id: 19
  ntc_temp_mos1: 0.0
  ntc_temp_mos2: 0.0
  ntc_temp_mos3: 0.0
  avg_vd: 0.007
  avg_vq: 0.004
---
header:
  stamp:
    sec: 1744977444
    nanosec: 353414638
  frame_id: ''
state:
  temp_fet: 0.0
  temp_motor: 0.0
  current_motor: 0.0
  current_input: 0.0
  avg_id: 0.0
  avg_iq: 0.0
  duty_cycle: 0.0
  speed: 0.0
  voltage_input: 12.2
  charge_drawn: 0.2105
  charge_regen: 0.0001
  energy_drawn: 2.5449
  energy_regen: 0.0014
  displacement: 38336
  distance_traveled: 44018
  fault_code: 0
  pid_pos_now: 314.979136
  controller_id: 19
  ntc_temp_mos1: 0.0
  ntc_temp_mos2: 0.0
  ntc_temp_mos3: 0.0
  avg_vd: 0.006
  avg_vq: 0.003
---
header:
  stamp:
    sec: 1744977444
    nanosec: 373349578
  frame_id: ''
state:
  temp_fet: 0.0
  temp_motor: 0.0
  current_motor: 0.0
  current_input: 0.0
  avg_id: 0.0
  avg_iq: 0.0
  duty_cycle: 0.001
  speed: 0.0
  voltage_input: 12.2
  charge_drawn: 0.2105
  charge_regen: 0.0001
  energy_drawn: 2.5449
  energy_regen: 0.0014
  displacement: 38336
  distance_traveled: 44018
  fault_code: 0
  pid_pos_now: 315.01104
  controller_id: 19
  ntc_temp_mos1: 0.0
  ntc_temp_mos2: 0.0
  ntc_temp_mos3: 0.0
  avg_vd: 0.006
  avg_vq: 0.003
---
header:
  stamp:
    sec: 1744977444
    nanosec: 393625515
  frame_id: ''
state:
  temp_fet: 0.0
  temp_motor: 0.0
  current_motor: 0.0
  current_input: 0.0
  avg_id: 0.0
  avg_iq: 0.0
  duty_cycle: 0.001
  speed: 0.0
  voltage_input: 12.2
  charge_drawn: 0.2105
  charge_regen: 0.0001
  energy_drawn: 2.5449
  energy_regen: 0.0014
  displacement: 38336
  distance_traveled: 44018
  fault_code: 0
  pid_pos_now: 315.027648
  controller_id: 19
  ntc_temp_mos1: 0.0
  ntc_temp_mos2: 0.0
  ntc_temp_mos3: 0.0
  avg_vd: 0.006
  avg_vq: 0.004
---
header:
  stamp:
    sec: 1744977444
    nanosec: 413440582
  frame_id: ''
state:
  temp_fet: 0.0
  temp_motor: 0.0
  current_motor: 0.0
  current_input: 0.0
  avg_id: 0.0
  avg_iq: 0.0
  duty_cycle: 0.001
  speed: 0.0
  voltage_input: 12.2
  charge_drawn: 0.2105
  charge_regen: 0.0001
  energy_drawn: 2.5449
  energy_regen: 0.0014
  displacement: 38336
  distance_traveled: 44018
  fault_code: 0
  pid_pos_now: 315.0
  controller_id: 19
  ntc_temp_mos1: 0.0
  ntc_temp_mos2: 0.0
  ntc_temp_mos3: 0.0
  avg_vd: 0.006
  avg_vq: 0.003
---
header:
  stamp:
    sec: 1744977444
    nanosec: 429195846
  frame_id: ''
state:
  temp_fet: 0.0
  temp_motor: 0.0
  current_motor: 0.0
  current_input: 0.0
  avg_id: 0.0
  avg_iq: 0.0
  duty_cycle: 0.0
  speed: 0.0
  voltage_input: 12.2
  charge_drawn: 0.2105
  charge_regen: 0.0001
  energy_drawn: 2.5449
  energy_regen: 0.0014
  displacement: 38336
  distance_traveled: 44018
  fault_code: 0
  pid_pos_now: 315.0056
  controller_id: 19
  ntc_temp_mos1: 0.0
  ntc_temp_mos2: 0.0
  ntc_temp_mos3: 0.0
  avg_vd: 0.005
  avg_vq: 0.003
---
header:
  stamp:
    sec: 1744977444
    nanosec: 454097993
  frame_id: ''
state:
  temp_fet: 0.0
  temp_motor: 0.0
  current_motor: 0.0
  current_input: 0.0
  avg_id: 0.0
  avg_iq: 0.0
  duty_cycle: 0.001
  speed: 0.0
  voltage_input: 12.2
  charge_drawn: 0.2105
  charge_regen: 0.0001
  energy_drawn: 2.5449
  energy_regen: 0.0014
  displacement: 38336
  distance_traveled: 44018
  fault_code: 0
  pid_pos_now: 315.0
  controller_id: 19
  ntc_temp_mos1: 0.0
  ntc_temp_mos2: 0.0
  ntc_temp_mos3: 0.0
  avg_vd: 0.006
  avg_vq: 0.003
---
header:
  stamp:
    sec: 1744977444
    nanosec: 468267059
  frame_id: ''
state:
  temp_fet: 0.0
  temp_motor: 0.0
  current_motor: 0.0
  current_input: 0.0
  avg_id: 0.0
  avg_iq: 0.0
  duty_cycle: 0.001
  speed: 0.0
  voltage_input: 12.2
  charge_drawn: 0.2105
  charge_regen: 0.0001
  energy_drawn: 2.5449
  energy_regen: 0.0014
  displacement: 38336
  distance_traveled: 44018
  fault_code: 0
  pid_pos_now: 315.0
  controller_id: 19
  ntc_temp_mos1: 0.0
  ntc_temp_mos2: 0.0
  ntc_temp_mos3: 0.0
  avg_vd: 0.006
  avg_vq: 0.004
---
header:
  stamp:
    sec: 1744977444
    nanosec: 494095715
  frame_id: ''
state:
  temp_fet: 0.0
  temp_motor: 0.0
  current_motor: 0.0
  current_input: 0.0
  avg_id: 0.0
  avg_iq: 0.0
  duty_cycle: 0.0
  speed: 0.0
  voltage_input: 12.2
  charge_drawn: 0.2105
  charge_regen: 0.0001
  energy_drawn: 2.5449
  energy_regen: 0.0014
  displacement: 38336
  distance_traveled: 44018
  fault_code: 0
  pid_pos_now: 315.005536
  controller_id: 19
  ntc_temp_mos1: 0.0
  ntc_temp_mos2: 0.0
  ntc_temp_mos3: 0.0
  avg_vd: 0.006
  avg_vq: 0.003
---
header:
  stamp:
    sec: 1744977444
    nanosec: 513283253
  frame_id: ''
state:
  temp_fet: 0.0
  temp_motor: 0.0
  current_motor: 0.0
  current_input: 0.0
  avg_id: 0.0
  avg_iq: 0.0
  duty_cycle: 0.0
  speed: 0.0
  voltage_input: 12.2
  charge_drawn: 0.2105
  charge_regen: 0.0001
  energy_drawn: 2.5449
  energy_regen: 0.0014
  displacement: 38336
  distance_traveled: 44018
  fault_code: 0
  pid_pos_now: 315.000032
  controller_id: 19
  ntc_temp_mos1: 0.0
  ntc_temp_mos2: 0.0
  ntc_temp_mos3: 0.0
  avg_vd: 0.005
  avg_vq: 0.004
---
header:
  stamp:
    sec: 1744977444
    nanosec: 534017660
  frame_id: ''
state:
  temp_fet: 0.0
  temp_motor: 0.0
  current_motor: 0.0
  current_input: 0.0
  avg_id: 0.0
  avg_iq: 0.0
  duty_cycle: 0.0
  speed: 0.0
  voltage_input: 12.2
  charge_drawn: 0.2105
  charge_regen: 0.0001
  energy_drawn: 2.5449
  energy_regen: 0.0014
  displacement: 38336
  distance_traveled: 44018
  fault_code: 0
  pid_pos_now: 315.01104
  controller_id: 19
  ntc_temp_mos1: 0.0
  ntc_temp_mos2: 0.0
  ntc_temp_mos3: 0.0
  avg_vd: 0.006
  avg_vq: 0.003
---
header:
  stamp:
    sec: 1744977444
    nanosec: 548423786
  frame_id: ''
state:
  temp_fet: 0.0
  temp_motor: 0.0
  current_motor: 0.0
  current_input: 0.0
  avg_id: 0.0
  avg_iq: 0.0
  duty_cycle: 0.001
  speed: 0.0
  voltage_input: 12.2
  charge_drawn: 0.2105
  charge_regen: 0.0001
  energy_drawn: 2.5449
  energy_regen: 0.0014
  displacement: 38336
  distance_traveled: 44018
  fault_code: 0
  pid_pos_now: 314.996832
  controller_id: 19
  ntc_temp_mos1: 0.0
  ntc_temp_mos2: 0.0
  ntc_temp_mos3: 0.0
  avg_vd: 0.006
  avg_vq: 0.004
---
header:
  stamp:
    sec: 1744977444
    nanosec: 568488232
  frame_id: ''
state:
  temp_fet: 0.0
  temp_motor: 0.0
  current_motor: 0.0
  current_input: 0.0
  avg_id: 0.0
  avg_iq: 0.0
  duty_cycle: 0.001
  speed: 0.0
  voltage_input: 12.2
  charge_drawn: 0.2105
  charge_regen: 0.0001
  energy_drawn: 2.5449
  energy_regen: 0.0014
  displacement: 38336
  distance_traveled: 44018
  fault_code: 0
  pid_pos_now: 315.01104
  controller_id: 19
  ntc_temp_mos1: 0.0
  ntc_temp_mos2: 0.0
  ntc_temp_mos3: 0.0
  avg_vd: 0.005
  avg_vq: 0.003
---
header:
  stamp:
    sec: 1744977444
    nanosec: 593451883
  frame_id: ''
state:
  temp_fet: 0.0
  temp_motor: 0.0
  current_motor: 0.0
  current_input: 0.0
  avg_id: 0.0
  avg_iq: 0.0
  duty_cycle: 0.0
  speed: 0.0
  voltage_input: 12.2
  charge_drawn: 0.2105
  charge_regen: 0.0001
  energy_drawn: 2.5449
  energy_regen: 0.0014
  displacement: 38336
  distance_traveled: 44018
  fault_code: 0
  pid_pos_now: 315.013408
  controller_id: 19
  ntc_temp_mos1: 0.0
  ntc_temp_mos2: 0.0
  ntc_temp_mos3: 0.0
  avg_vd: 0.006
  avg_vq: 0.003
---
header:
  stamp:
    sec: 1744977444
    nanosec: 610344284
  frame_id: ''
state:
  temp_fet: 0.0
  temp_motor: 0.0
  current_motor: 0.0
  current_input: 0.0
  avg_id: 0.0
  avg_iq: 0.0
  duty_cycle: 0.001
  speed: 0.0
  voltage_input: 12.2
  charge_drawn: 0.2105
  charge_regen: 0.0001
  energy_drawn: 2.5449
  energy_regen: 0.0014
  displacement: 38336
  distance_traveled: 44018
  fault_code: 0
  pid_pos_now: 315.01104
  controller_id: 19
  ntc_temp_mos1: 0.0
  ntc_temp_mos2: 0.0
  ntc_temp_mos3: 0.0
  avg_vd: 0.006
  avg_vq: 0.003
---
header:
  stamp:
    sec: 1744977444
    nanosec: 628319260
  frame_id: ''
state:
  temp_fet: 0.0
  temp_motor: 0.0
  current_motor: 0.0
  current_input: 0.0
  avg_id: 0.0
  avg_iq: 0.0
  duty_cycle: 0.001
  speed: 0.0
  voltage_input: 12.2
  charge_drawn: 0.2105
  charge_regen: 0.0001
  energy_drawn: 2.5449
  energy_regen: 0.0014
  displacement: 38336
  distance_traveled: 44018
  fault_code: 0
  pid_pos_now: 315.0
  controller_id: 19
  ntc_temp_mos1: 0.0
  ntc_temp_mos2: 0.0
  ntc_temp_mos3: 0.0
  avg_vd: 0.006
  avg_vq: 0.004
---
header:
  stamp:
    sec: 1744977444
    nanosec: 653340673
  frame_id: ''
state:
  temp_fet: 0.0
  temp_motor: 0.0
  current_motor: 0.0
  current_input: 0.0
  avg_id: 0.0
  avg_iq: 0.0
  duty_cycle: 0.001
  speed: 0.0
  voltage_input: 12.2
  charge_drawn: 0.2105
  charge_regen: 0.0001
  energy_drawn: 2.5449
  energy_regen: 0.0014
  displacement: 38336
  distance_traveled: 44018
  fault_code: 0
  pid_pos_now: 314.9968
  controller_id: 19
  ntc_temp_mos1: 0.0
  ntc_temp_mos2: 0.0
  ntc_temp_mos3: 0.0
  avg_vd: 0.006
  avg_vq: 0.004
---
header:
  stamp:
    sec: 1744977444
    nanosec: 668672924
  frame_id: ''
state:
  temp_fet: 0.0
  temp_motor: 0.0
  current_motor: 0.0
  current_input: 0.0
  avg_id: 0.0
  avg_iq: 0.0
  duty_cycle: 0.001
  speed: 0.0
  voltage_input: 12.2
  charge_drawn: 0.2105
  charge_regen: 0.0001
  energy_drawn: 2.5449
  energy_regen: 0.0014
  displacement: 38336
  distance_traveled: 44018
  fault_code: 0
  pid_pos_now: 315.0
  controller_id: 19
  ntc_temp_mos1: 0.0
  ntc_temp_mos2: 0.0
  ntc_temp_mos3: 0.0
  avg_vd: 0.006
  avg_vq: 0.004
---
header:
  stamp:
    sec: 1744977444
    nanosec: 688388053
  frame_id: ''
state:
  temp_fet: 0.0
  temp_motor: 0.0
  current_motor: 0.0
  current_input: 0.0
  avg_id: 0.0
  avg_iq: 0.0
  duty_cycle: 0.001
  speed: 0.0
  voltage_input: 12.2
  charge_drawn: 0.2105
  charge_regen: 0.0001
  energy_drawn: 2.5449
  energy_regen: 0.0014
  displacement: 38336
  distance_traveled: 44018
  fault_code: 0
  pid_pos_now: 315.01104
  controller_id: 19
  ntc_temp_mos1: 0.0
  ntc_temp_mos2: 0.0
  ntc_temp_mos3: 0.0
  avg_vd: 0.005
  avg_vq: 0.003
---
header:
  stamp:
    sec: 1744977444
    nanosec: 713323448
  frame_id: ''
state:
  temp_fet: 0.0
  temp_motor: 0.0
  current_motor: 0.0
  current_input: 0.0
  avg_id: 0.0
  avg_iq: 0.0
  duty_cycle: 0.001
  speed: 0.0
  voltage_input: 12.2
  charge_drawn: 0.2105
  charge_regen: 0.0001
  energy_drawn: 2.5449
  energy_regen: 0.0014
  displacement: 38336
  distance_traveled: 44018
  fault_code: 0
  pid_pos_now: 315.0
  controller_id: 19
  ntc_temp_mos1: 0.0
  ntc_temp_mos2: 0.0
  ntc_temp_mos3: 0.0
  avg_vd: 0.005
  avg_vq: 0.003
---
header:
  stamp:
    sec: 1744977444
    nanosec: 733398486
  frame_id: ''
state:
  temp_fet: 0.0
  temp_motor: 0.0
  current_motor: 0.0
  current_input: 0.0
  avg_id: 0.0
  avg_iq: 0.0
  duty_cycle: 0.001
  speed: 0.0
  voltage_input: 12.2
  charge_drawn: 0.2105
  charge_regen: 0.0001
  energy_drawn: 2.5449
  energy_regen: 0.0014
  displacement: 38336
  distance_traveled: 44018
  fault_code: 0
  pid_pos_now: 315.011072
  controller_id: 19
  ntc_temp_mos1: 0.0
  ntc_temp_mos2: 0.0
  ntc_temp_mos3: 0.0
  avg_vd: 0.005
  avg_vq: 0.002
---
header:
  stamp:
    sec: 1744977444
    nanosec: 753248305
  frame_id: ''
state:
  temp_fet: 0.0
  temp_motor: 0.0
  current_motor: 0.0
  current_input: 0.0
  avg_id: 0.0
  avg_iq: 0.0
  duty_cycle: 0.001
  speed: 0.0
  voltage_input: 12.2
  charge_drawn: 0.2105
  charge_regen: 0.0001
  energy_drawn: 2.5449
  energy_regen: 0.0014
  displacement: 38336
  distance_traveled: 44018
  fault_code: 0
  pid_pos_now: 315.01104
  controller_id: 19
  ntc_temp_mos1: 0.0
  ntc_temp_mos2: 0.0
  ntc_temp_mos3: 0.0
  avg_vd: 0.006
  avg_vq: 0.003
---
header:
  stamp:
    sec: 1744977444
    nanosec: 773427409
  frame_id: ''
state:
  temp_fet: 0.0
  temp_motor: 0.0
  current_motor: 0.0
  current_input: 0.0
  avg_id: 0.0
  avg_iq: 0.0
  duty_cycle: 0.001
  speed: 0.0
  voltage_input: 12.2
  charge_drawn: 0.2105
  charge_regen: 0.0001
  energy_drawn: 2.5449
  energy_regen: 0.0014
  displacement: 38336
  distance_traveled: 44018
  fault_code: 0
  pid_pos_now: 315.01104
  controller_id: 19
  ntc_temp_mos1: 0.0
  ntc_temp_mos2: 0.0
  ntc_temp_mos3: 0.0
  avg_vd: 0.008
  avg_vq: 0.005
---
header:
  stamp:
    sec: 1744977444
    nanosec: 793240427
  frame_id: ''
state:
  temp_fet: 0.0
  temp_motor: 0.0
  current_motor: 0.0
  current_input: 0.0
  avg_id: 0.0
  avg_iq: 0.0
  duty_cycle: 0.001
  speed: 0.0
  voltage_input: 12.2
  charge_drawn: 0.2105
  charge_regen: 0.0001
  energy_drawn: 2.5449
  energy_regen: 0.0014
  displacement: 38336
  distance_traveled: 44018
  fault_code: 0
  pid_pos_now: 315.011072
  controller_id: 19
  ntc_temp_mos1: 0.0
  ntc_temp_mos2: 0.0
  ntc_temp_mos3: 0.0
  avg_vd: 0.006
  avg_vq: 0.003
---
header:
  stamp:
    sec: 1744977444
    nanosec: 813524332
  frame_id: ''
state:
  temp_fet: 0.0
  temp_motor: 0.0
  current_motor: 0.0
  current_input: 0.0
  avg_id: 0.0
  avg_iq: 0.0
  duty_cycle: 0.0
  speed: 0.0
  voltage_input: 12.2
  charge_drawn: 0.2105
  charge_regen: 0.0001
  energy_drawn: 2.5449
  energy_regen: 0.0014
  displacement: 38336
  distance_traveled: 44018
  fault_code: 0
  pid_pos_now: 315.002336
  controller_id: 19
  ntc_temp_mos1: 0.0
  ntc_temp_mos2: 0.0
  ntc_temp_mos3: 0.0
  avg_vd: 0.005
  avg_vq: 0.003
---
header:
  stamp:
    sec: 1744977444
    nanosec: 833393383
  frame_id: ''
state:
  temp_fet: 0.0
  temp_motor: 0.0
  current_motor: 0.0
  current_input: 0.0
  avg_id: 0.0
  avg_iq: 0.0
  duty_cycle: 0.0
  speed: 0.0
  voltage_input: 12.2
  charge_drawn: 0.2105
  charge_regen: 0.0001
  energy_drawn: 2.5449
  energy_regen: 0.0014
  displacement: 38336
  distance_traveled: 44018
  fault_code: 0
  pid_pos_now: 314.9968
  controller_id: 19
  ntc_temp_mos1: 0.0
  ntc_temp_mos2: 0.0
  ntc_temp_mos3: 0.0
  avg_vd: 0.005
  avg_vq: 0.002
---
header:
  stamp:
    sec: 1744977444
    nanosec: 853358532
  frame_id: ''
state:
  temp_fet: 0.0
  temp_motor: 0.0
  current_motor: 0.0
  current_input: 0.0
  avg_id: 0.0
  avg_iq: 0.0
  duty_cycle: 0.001
  speed: 0.0
  voltage_input: 12.2
  charge_drawn: 0.2105
  charge_regen: 0.0001
  energy_drawn: 2.5449
  energy_regen: 0.0014
  displacement: 38336
  distance_traveled: 44018
  fault_code: 0
  pid_pos_now: 315.011072
  controller_id: 19
  ntc_temp_mos1: 0.0
  ntc_temp_mos2: 0.0
  ntc_temp_mos3: 0.0
  avg_vd: 0.006
  avg_vq: 0.003
---
header:
  stamp:
    sec: 1744977444
    nanosec: 873472290
  frame_id: ''
state:
  temp_fet: 0.0
  temp_motor: 0.0
  current_motor: 0.0
  current_input: 0.0
  avg_id: 0.0
  avg_iq: 0.0
  duty_cycle: 0.001
  speed: 0.0
  voltage_input: 12.2
  charge_drawn: 0.2105
  charge_regen: 0.0001
  energy_drawn: 2.5449
  energy_regen: 0.0014
  displacement: 38336
  distance_traveled: 44018
  fault_code: 0
  pid_pos_now: 315.011072
  controller_id: 19
  ntc_temp_mos1: 0.0
  ntc_temp_mos2: 0.0
  ntc_temp_mos3: 0.0
  avg_vd: 0.006
  avg_vq: 0.004
---
header:
  stamp:
    sec: 1744977444
    nanosec: 893378430
  frame_id: ''
state:
  temp_fet: 0.0
  temp_motor: 0.0
  current_motor: 0.0
  current_input: 0.0
  avg_id: 0.0
  avg_iq: 0.0
  duty_cycle: 0.0
  speed: 0.0
  voltage_input: 12.2
  charge_drawn: 0.2105
  charge_regen: 0.0001
  energy_drawn: 2.5449
  energy_regen: 0.0014
  displacement: 38336
  distance_traveled: 44018
  fault_code: 0
  pid_pos_now: 314.990432
  controller_id: 19
  ntc_temp_mos1: 0.0
  ntc_temp_mos2: 0.0
  ntc_temp_mos3: 0.0
  avg_vd: 0.006
  avg_vq: 0.004
---
header:
  stamp:
    sec: 1744977444
    nanosec: 913461372
  frame_id: ''
state:
  temp_fet: 0.0
  temp_motor: 0.0
  current_motor: 0.0
  current_input: 0.0
  avg_id: 0.0
  avg_iq: 0.0
  duty_cycle: 0.001
  speed: 0.0
  voltage_input: 12.2
  charge_drawn: 0.2105
  charge_regen: 0.0001
  energy_drawn: 2.5449
  energy_regen: 0.0014
  displacement: 38336
  distance_traveled: 44018
  fault_code: 0
  pid_pos_now: 315.0
  controller_id: 19
  ntc_temp_mos1: 0.0
  ntc_temp_mos2: 0.0
  ntc_temp_mos3: 0.0
  avg_vd: 0.006
  avg_vq: 0.003
---
header:
  stamp:
    sec: 1744977444
    nanosec: 928486579
  frame_id: ''
state:
  temp_fet: 0.0
  temp_motor: 0.0
  current_motor: 0.0
  current_input: 0.0
  avg_id: 0.0
  avg_iq: 0.0
  duty_cycle: 0.001
  speed: 0.0
  voltage_input: 12.2
  charge_drawn: 0.2105
  charge_regen: 0.0001
  energy_drawn: 2.5449
  energy_regen: 0.0014
  displacement: 38336
  distance_traveled: 44018
  fault_code: 0
  pid_pos_now: 315.0
  controller_id: 19
  ntc_temp_mos1: 0.0
  ntc_temp_mos2: 0.0
  ntc_temp_mos3: 0.0
  avg_vd: 0.006
  avg_vq: 0.003
---
header:
  stamp:
    sec: 1744977444
    nanosec: 948377422
  frame_id: ''
state:
  temp_fet: 0.0
  temp_motor: 0.0
  current_motor: 0.0
  current_input: 0.0
  avg_id: 0.0
  avg_iq: 0.0
  duty_cycle: 0.0
  speed: 0.0
  voltage_input: 12.2
  charge_drawn: 0.2105
  charge_regen: 0.0001
  energy_drawn: 2.5449
  energy_regen: 0.0014
  displacement: 38336
  distance_traveled: 44018
  fault_code: 0
  pid_pos_now: 315.004704
  controller_id: 19
  ntc_temp_mos1: 0.0
  ntc_temp_mos2: 0.0
  ntc_temp_mos3: 0.0
  avg_vd: 0.006
  avg_vq: 0.003
---
header:
  stamp:
    sec: 1744977444
    nanosec: 968434636
  frame_id: ''
state:
  temp_fet: 0.0
  temp_motor: 0.0
  current_motor: 0.0
  current_input: 0.0
  avg_id: 0.0
  avg_iq: 0.0
  duty_cycle: 0.001
  speed: 0.0
  voltage_input: 12.2
  charge_drawn: 0.2105
  charge_regen: 0.0001
  energy_drawn: 2.5449
  energy_regen: 0.0014
  displacement: 38336
  distance_traveled: 44018
  fault_code: 0
  pid_pos_now: 314.993632
  controller_id: 19
  ntc_temp_mos1: 0.0
  ntc_temp_mos2: 0.0
  ntc_temp_mos3: 0.0
  avg_vd: 0.005
  avg_vq: 0.003
---
header:
  stamp:
    sec: 1744977444
    nanosec: 988720365
  frame_id: ''
state:
  temp_fet: 0.0
  temp_motor: 0.0
  current_motor: 0.0
  current_input: 0.0
  avg_id: 0.0
  avg_iq: 0.0
  duty_cycle: 0.001
  speed: 0.0
  voltage_input: 12.2
  charge_drawn: 0.2105
  charge_regen: 0.0001
  energy_drawn: 2.5449
  energy_regen: 0.0014
  displacement: 38336
  distance_traveled: 44018
  fault_code: 0
  pid_pos_now: 315.016576
  controller_id: 19
  ntc_temp_mos1: 0.0
  ntc_temp_mos2: 0.0
  ntc_temp_mos3: 0.0
  avg_vd: 0.006
  avg_vq: 0.003
---
header:
  stamp:
    sec: 1744977445
    nanosec: 8362373
  frame_id: ''
state:
  temp_fet: 0.0
  temp_motor: 0.0
  current_motor: 0.0
  current_input: 0.0
  avg_id: 0.0
  avg_iq: 0.0
  duty_cycle: 0.0
  speed: 0.0
  voltage_input: 12.2
  charge_drawn: 0.2105
  charge_regen: 0.0001
  energy_drawn: 2.5449
  energy_regen: 0.0014
  displacement: 38336
  distance_traveled: 44018
  fault_code: 0
  pid_pos_now: 315.015712
  controller_id: 19
  ntc_temp_mos1: 0.0
  ntc_temp_mos2: 0.0
  ntc_temp_mos3: 0.0
  avg_vd: 0.006
  avg_vq: 0.003
---
header:
  stamp:
    sec: 1744977445
    nanosec: 33358313
  frame_id: ''
state:
  temp_fet: 0.0
  temp_motor: 0.0
  current_motor: 0.0
  current_input: 0.0
  avg_id: 0.0
  avg_iq: 0.0
  duty_cycle: 0.0
  speed: 0.0
  voltage_input: 12.2
  charge_drawn: 0.2105
  charge_regen: 0.0001
  energy_drawn: 2.5449
  energy_regen: 0.0014
  displacement: 38336
  distance_traveled: 44018
  fault_code: 0
  pid_pos_now: 315.004672
  controller_id: 19
  ntc_temp_mos1: 0.0
  ntc_temp_mos2: 0.0
  ntc_temp_mos3: 0.0
  avg_vd: 0.005
  avg_vq: 0.003
---
header:
  stamp:
    sec: 1744977445
    nanosec: 48561346
  frame_id: ''
state:
  temp_fet: 0.0
  temp_motor: 0.0
  current_motor: 0.0
  current_input: 0.0
  avg_id: 0.0
  avg_iq: 0.0
  duty_cycle: 0.001
  speed: 0.0
  voltage_input: 12.2
  charge_drawn: 0.2105
  charge_regen: 0.0001
  energy_drawn: 2.5449
  energy_regen: 0.0014
  displacement: 38336
  distance_traveled: 44018
  fault_code: 0
  pid_pos_now: 314.993632
  controller_id: 19
  ntc_temp_mos1: 0.0
  ntc_temp_mos2: 0.0
  ntc_temp_mos3: 0.0
  avg_vd: 0.006
  avg_vq: 0.003
---
header:
  stamp:
    sec: 1744977445
    nanosec: 73572615
  frame_id: ''
state:
  temp_fet: 0.0
  temp_motor: 0.0
  current_motor: 0.0
  current_input: 0.0
  avg_id: 0.0
  avg_iq: 0.0
  duty_cycle: 0.001
  speed: 0.0
  voltage_input: 12.2
  charge_drawn: 0.2105
  charge_regen: 0.0001
  energy_drawn: 2.5449
  energy_regen: 0.0014
  displacement: 38336
  distance_traveled: 44018
  fault_code: 0
  pid_pos_now: 315.01104
  controller_id: 19
  ntc_temp_mos1: 0.0
  ntc_temp_mos2: 0.0
  ntc_temp_mos3: 0.0
  avg_vd: 0.006
  avg_vq: 0.004
---
header:
  stamp:
    sec: 1744977445
    nanosec: 88292344
  frame_id: ''
state:
  temp_fet: 0.0
  temp_motor: 0.0
  current_motor: 0.0
  current_input: 0.0
  avg_id: 0.0
  avg_iq: 0.0
  duty_cycle: 0.0
  speed: 0.0
  voltage_input: 12.2
  charge_drawn: 0.2105
  charge_regen: 0.0001
  energy_drawn: 2.5449
  energy_regen: 0.0014
  displacement: 38336
  distance_traveled: 44018
  fault_code: 0
  pid_pos_now: 315.002336
  controller_id: 19
  ntc_temp_mos1: 0.0
  ntc_temp_mos2: 0.0
  ntc_temp_mos3: 0.0
  avg_vd: 0.006
  avg_vq: 0.004
---
header:
  stamp:
    sec: 1744977445
    nanosec: 113463615
  frame_id: ''
state:
  temp_fet: 0.0
  temp_motor: 0.0
  current_motor: 0.0
  current_input: 0.0
  avg_id: 0.0
  avg_iq: 0.0
  duty_cycle: 0.001
  speed: 0.0
  voltage_input: 12.2
  charge_drawn: 0.2105
  charge_regen: 0.0001
  energy_drawn: 2.5449
  energy_regen: 0.0014
  displacement: 38336
  distance_traveled: 44018
  fault_code: 0
  pid_pos_now: 315.055296
  controller_id: 19
  ntc_temp_mos1: 0.0
  ntc_temp_mos2: 0.0
  ntc_temp_mos3: 0.0
  avg_vd: 0.006
  avg_vq: 0.004
---
header:
  stamp:
    sec: 1744977445
    nanosec: 129355042
  frame_id: ''
state:
  temp_fet: 0.0
  temp_motor: 0.0
  current_motor: 0.0
  current_input: 0.0
  avg_id: 0.0
  avg_iq: 0.0
  duty_cycle: 0.001
  speed: 0.0
  voltage_input: 12.2
  charge_drawn: 0.2105
  charge_regen: 0.0001
  energy_drawn: 2.5449
  energy_regen: 0.0014
  displacement: 38336
  distance_traveled: 44018
  fault_code: 0
  pid_pos_now: 315.0
  controller_id: 19
  ntc_temp_mos1: 0.0
  ntc_temp_mos2: 0.0
  ntc_temp_mos3: 0.0
  avg_vd: 0.006
  avg_vq: 0.004
---
header:
  stamp:
    sec: 1744977445
    nanosec: 153408377
  frame_id: ''
state:
  temp_fet: 0.0
  temp_motor: 0.0
  current_motor: 0.0
  current_input: 0.0
  avg_id: 0.0
  avg_iq: 0.0
  duty_cycle: 0.001
  speed: 0.0
  voltage_input: 12.2
  charge_drawn: 0.2105
  charge_regen: 0.0001
  energy_drawn: 2.5449
  energy_regen: 0.0014
  displacement: 38336
  distance_traveled: 44018
  fault_code: 0
  pid_pos_now: 315.005536
  controller_id: 19
  ntc_temp_mos1: 0.0
  ntc_temp_mos2: 0.0
  ntc_temp_mos3: 0.0
  avg_vd: 0.006
  avg_vq: 0.003
---
header:
  stamp:
    sec: 1744977445
    nanosec: 173967582
  frame_id: ''
state:
  temp_fet: 0.0
  temp_motor: 0.0
  current_motor: 0.0
  current_input: 0.0
  avg_id: 0.0
  avg_iq: 0.0
  duty_cycle: 0.001
  speed: 0.0
  voltage_input: 12.2
  charge_drawn: 0.2105
  charge_regen: 0.0001
  energy_drawn: 2.5449
  energy_regen: 0.0014
  displacement: 38336
  distance_traveled: 44018
  fault_code: 0
  pid_pos_now: 315.0
  controller_id: 19
  ntc_temp_mos1: 0.0
  ntc_temp_mos2: 0.0
  ntc_temp_mos3: 0.0
  avg_vd: 0.006
  avg_vq: 0.003
---
header:
  stamp:
    sec: 1744977445
    nanosec: 193516628
  frame_id: ''
state:
  temp_fet: 0.0
  temp_motor: 0.0
  current_motor: 0.0
  current_input: 0.0
  avg_id: 0.0
  avg_iq: 0.0
  duty_cycle: 0.0
  speed: 0.0
  voltage_input: 12.2
  charge_drawn: 0.2105
  charge_regen: 0.0001
  energy_drawn: 2.5449
  energy_regen: 0.0014
  displacement: 38336
  distance_traveled: 44018
  fault_code: 0
  pid_pos_now: 315.033152
  controller_id: 19
  ntc_temp_mos1: 0.0
  ntc_temp_mos2: 0.0
  ntc_temp_mos3: 0.0
  avg_vd: 0.005
  avg_vq: 0.003
---
header:
  stamp:
    sec: 1744977445
    nanosec: 213306254
  frame_id: ''
state:
  temp_fet: 0.0
  temp_motor: 0.0
  current_motor: 0.0
  current_input: 0.0
  avg_id: 0.0
  avg_iq: 0.0
  duty_cycle: 0.001
  speed: 0.0
  voltage_input: 12.2
  charge_drawn: 0.2105
  charge_regen: 0.0001
  energy_drawn: 2.5449
  energy_regen: 0.0014
  displacement: 38336
  distance_traveled: 44018
  fault_code: 0
  pid_pos_now: 315.0
  controller_id: 19
  ntc_temp_mos1: 0.0
  ntc_temp_mos2: 0.0
  ntc_temp_mos3: 0.0
  avg_vd: 0.006
  avg_vq: 0.003
---
header:
  stamp:
    sec: 1744977445
    nanosec: 233413965
  frame_id: ''
state:
  temp_fet: 0.0
  temp_motor: 0.0
  current_motor: 0.0
  current_input: 0.0
  avg_id: 0.0
  avg_iq: 0.0
  duty_cycle: 0.0
  speed: 0.0
  voltage_input: 12.2
  charge_drawn: 0.2105
  charge_regen: 0.0001
  energy_drawn: 2.5449
  energy_regen: 0.0014
  displacement: 38336
  distance_traveled: 44018
  fault_code: 0
  pid_pos_now: 315.01104
  controller_id: 19
  ntc_temp_mos1: 0.0
  ntc_temp_mos2: 0.0
  ntc_temp_mos3: 0.0
  avg_vd: 0.006
  avg_vq: 0.003
---
header:
  stamp:
    sec: 1744977445
    nanosec: 248842473
  frame_id: ''
state:
  temp_fet: 0.0
  temp_motor: 0.0
  current_motor: 0.0
  current_input: 0.0
  avg_id: 0.0
  avg_iq: 0.0
  duty_cycle: 0.001
  speed: 0.0
  voltage_input: 12.2
  charge_drawn: 0.2105
  charge_regen: 0.0001
  energy_drawn: 2.5449
  energy_regen: 0.0014
  displacement: 38336
  distance_traveled: 44018
  fault_code: 0
  pid_pos_now: 315.0
  controller_id: 19
  ntc_temp_mos1: 0.0
  ntc_temp_mos2: 0.0
  ntc_temp_mos3: 0.0
  avg_vd: 0.006
  avg_vq: 0.003
---
header:
  stamp:
    sec: 1744977445
    nanosec: 273625898
  frame_id: ''
state:
  temp_fet: 0.0
  temp_motor: 0.0
  current_motor: 0.0
  current_input: 0.0
  avg_id: 0.0
  avg_iq: 0.0
  duty_cycle: 0.0
  speed: 0.0
  voltage_input: 12.2
  charge_drawn: 0.2105
  charge_regen: 0.0001
  energy_drawn: 2.5449
  energy_regen: 0.0014
  displacement: 38336
  distance_traveled: 44018
  fault_code: 0
  pid_pos_now: 315.007008
  controller_id: 19
  ntc_temp_mos1: 0.0
  ntc_temp_mos2: 0.0
  ntc_temp_mos3: 0.0
  avg_vd: 0.006
  avg_vq: 0.004
---
header:
  stamp:
    sec: 1744977445
    nanosec: 293240994
  frame_id: ''
state:
  temp_fet: 0.0
  temp_motor: 0.0
  current_motor: 0.0
  current_input: 0.0
  avg_id: 0.0
  avg_iq: 0.0
  duty_cycle: 0.0
  speed: 0.0
  voltage_input: 12.2
  charge_drawn: 0.2105
  charge_regen: 0.0001
  energy_drawn: 2.5449
  energy_regen: 0.0014
  displacement: 38336
  distance_traveled: 44018
  fault_code: 0
  pid_pos_now: 314.996832
  controller_id: 19
  ntc_temp_mos1: 0.0
  ntc_temp_mos2: 0.0
  ntc_temp_mos3: 0.0
  avg_vd: 0.006
  avg_vq: 0.003
---
header:
  stamp:
    sec: 1744977445
    nanosec: 313333888
  frame_id: ''
state:
  temp_fet: 0.0
  temp_motor: 0.0
  current_motor: 0.0
  current_input: 0.0
  avg_id: 0.0
  avg_iq: 0.0
  duty_cycle: 0.0
  speed: 0.0
  voltage_input: 12.2
  charge_drawn: 0.2105
  charge_regen: 0.0001
  energy_drawn: 2.5449
  energy_regen: 0.0014
  displacement: 38336
  distance_traveled: 44018
  fault_code: 0
  pid_pos_now: 315.013408
  controller_id: 19
  ntc_temp_mos1: 0.0
  ntc_temp_mos2: 0.0
  ntc_temp_mos3: 0.0
  avg_vd: 0.006
  avg_vq: 0.003
---
header:
  stamp:
    sec: 1744977445
    nanosec: 333368766
  frame_id: ''
state:
  temp_fet: 0.0
  temp_motor: 0.0
  current_motor: 0.0
  current_input: 0.0
  avg_id: 0.0
  avg_iq: 0.0
  duty_cycle: 0.001
  speed: 0.0
  voltage_input: 12.2
  charge_drawn: 0.2105
  charge_regen: 0.0001
  energy_drawn: 2.5449
  energy_regen: 0.0014
  displacement: 38336
  distance_traveled: 44018
  fault_code: 0
  pid_pos_now: 315.01104
  controller_id: 19
  ntc_temp_mos1: 0.0
  ntc_temp_mos2: 0.0
  ntc_temp_mos3: 0.0
  avg_vd: 0.006
  avg_vq: 0.003
---
header:
  stamp:
    sec: 1744977445
    nanosec: 353428252
  frame_id: ''
state:
  temp_fet: 0.0
  temp_motor: 0.0
  current_motor: 0.0
  current_input: 0.0
  avg_id: 0.0
  avg_iq: 0.0
  duty_cycle: 0.0
  speed: 0.0
  voltage_input: 12.2
  charge_drawn: 0.2105
  charge_regen: 0.0001
  energy_drawn: 2.5449
  energy_regen: 0.0014
  displacement: 38336
  distance_traveled: 44018
  fault_code: 0
  pid_pos_now: 315.004672
  controller_id: 19
  ntc_temp_mos1: 0.0
  ntc_temp_mos2: 0.0
  ntc_temp_mos3: 0.0
  avg_vd: 0.006
  avg_vq: 0.003
---
header:
  stamp:
    sec: 1744977445
    nanosec: 373339895
  frame_id: ''
state:
  temp_fet: 0.0
  temp_motor: 0.0
  current_motor: 0.0
  current_input: 0.0
  avg_id: 0.0
  avg_iq: 0.0
  duty_cycle: 0.001
  speed: 0.0
  voltage_input: 12.2
  charge_drawn: 0.2105
  charge_regen: 0.0001
  energy_drawn: 2.5449
  energy_regen: 0.0014
  displacement: 38336
  distance_traveled: 44018
  fault_code: 0
  pid_pos_now: 315.027648
  controller_id: 19
  ntc_temp_mos1: 0.0
  ntc_temp_mos2: 0.0
  ntc_temp_mos3: 0.0
  avg_vd: 0.006
  avg_vq: 0.003
---
header:
  stamp:
    sec: 1744977445
    nanosec: 388340013
  frame_id: ''
state:
  temp_fet: 0.0
  temp_motor: 0.0
  current_motor: 0.0
  current_input: 0.0
  avg_id: 0.0
  avg_iq: 0.0
  duty_cycle: 0.0
  speed: 0.0
  voltage_input: 12.2
  charge_drawn: 0.2105
  charge_regen: 0.0001
  energy_drawn: 2.5449
  energy_regen: 0.0014
  displacement: 38336
  distance_traveled: 44018
  fault_code: 0
  pid_pos_now: 315.000032
  controller_id: 19
  ntc_temp_mos1: 0.0
  ntc_temp_mos2: 0.0
  ntc_temp_mos3: 0.0
  avg_vd: 0.006
  avg_vq: 0.003
---
header:
  stamp:
    sec: 1744977445
    nanosec: 413395474
  frame_id: ''
state:
  temp_fet: 0.0
  temp_motor: 0.0
  current_motor: 0.0
  current_input: 0.0
  avg_id: 0.0
  avg_iq: 0.0
  duty_cycle: 0.001
  speed: 0.0
  voltage_input: 12.2
  charge_drawn: 0.2105
  charge_regen: 0.0001
  energy_drawn: 2.5449
  energy_regen: 0.0014
  displacement: 38336
  distance_traveled: 44018
  fault_code: 0
  pid_pos_now: 315.01104
  controller_id: 19
  ntc_temp_mos1: 0.0
  ntc_temp_mos2: 0.0
  ntc_temp_mos3: 0.0
  avg_vd: 0.005
  avg_vq: 0.003
---
header:
  stamp:
    sec: 1744977445
    nanosec: 433383855
  frame_id: ''
state:
  temp_fet: 0.0
  temp_motor: 0.0
  current_motor: 0.0
  current_input: 0.0
  avg_id: 0.0
  avg_iq: 0.0
  duty_cycle: 0.0
  speed: 0.0
  voltage_input: 12.2
  charge_drawn: 0.2105
  charge_regen: 0.0001
  energy_drawn: 2.5449
  energy_regen: 0.0014
  displacement: 38336
  distance_traveled: 44018
  fault_code: 0
  pid_pos_now: 315.0
  controller_id: 19
  ntc_temp_mos1: 0.0
  ntc_temp_mos2: 0.0
  ntc_temp_mos3: 0.0
  avg_vd: 0.006
  avg_vq: 0.003
---
header:
  stamp:
    sec: 1744977445
    nanosec: 453299019
  frame_id: ''
state:
  temp_fet: 0.0
  temp_motor: 0.0
  current_motor: 0.0
  current_input: 0.0
  avg_id: 0.0
  avg_iq: 0.0
  duty_cycle: 0.0
  speed: 0.0
  voltage_input: 12.2
  charge_drawn: 0.2105
  charge_regen: 0.0001
  energy_drawn: 2.5449
  energy_regen: 0.0014
  displacement: 38336
  distance_traveled: 44018
  fault_code: 0
  pid_pos_now: 315.005536
  controller_id: 19
  ntc_temp_mos1: 0.0
  ntc_temp_mos2: 0.0
  ntc_temp_mos3: 0.0
  avg_vd: 0.005
  avg_vq: 0.003
---
header:
  stamp:
    sec: 1744977445
    nanosec: 473423402
  frame_id: ''
state:
  temp_fet: 0.0
  temp_motor: 0.0
  current_motor: 0.0
  current_input: 0.0
  avg_id: 0.0
  avg_iq: 0.0
  duty_cycle: 0.0
  speed: 0.0
  voltage_input: 12.2
  charge_drawn: 0.2105
  charge_regen: 0.0001
  energy_drawn: 2.5449
  energy_regen: 0.0014
  displacement: 38336
  distance_traveled: 44018
  fault_code: 0
  pid_pos_now: 315.018912
  controller_id: 19
  ntc_temp_mos1: 0.0
  ntc_temp_mos2: 0.0
  ntc_temp_mos3: 0.0
  avg_vd: 0.006
  avg_vq: 0.003
---
header:
  stamp:
    sec: 1744977445
    nanosec: 493368646
  frame_id: ''
state:
  temp_fet: 0.0
  temp_motor: 0.0
  current_motor: 0.0
  current_input: 0.0
  avg_id: 0.0
  avg_iq: 0.0
  duty_cycle: 0.001
  speed: 0.0
  voltage_input: 12.2
  charge_drawn: 0.2105
  charge_regen: 0.0001
  energy_drawn: 2.5449
  energy_regen: 0.0014
  displacement: 38336
  distance_traveled: 44018
  fault_code: 0
  pid_pos_now: 314.996832
  controller_id: 19
  ntc_temp_mos1: 0.0
  ntc_temp_mos2: 0.0
  ntc_temp_mos3: 0.0
  avg_vd: 0.006
  avg_vq: 0.003
---
header:
  stamp:
    sec: 1744977445
    nanosec: 513555206
  frame_id: ''
state:
  temp_fet: 0.0
  temp_motor: 0.0
  current_motor: 0.0
  current_input: 0.0
  avg_id: 0.0
  avg_iq: 0.0
  duty_cycle: 0.001
  speed: 0.0
  voltage_input: 12.2
  charge_drawn: 0.2105
  charge_regen: 0.0001
  energy_drawn: 2.5449
  energy_regen: 0.0014
  displacement: 38336
  distance_traveled: 44018
  fault_code: 0
  pid_pos_now: 315.0
  controller_id: 19
  ntc_temp_mos1: 0.0
  ntc_temp_mos2: 0.0
  ntc_temp_mos3: 0.0
  avg_vd: 0.006
  avg_vq: 0.003
---
header:
  stamp:
    sec: 1744977445
    nanosec: 533576899
  frame_id: ''
state:
  temp_fet: 0.0
  temp_motor: 0.0
  current_motor: 0.0
  current_input: 0.0
  avg_id: 0.0
  avg_iq: 0.0
  duty_cycle: 0.001
  speed: 0.0
  voltage_input: 12.2
  charge_drawn: 0.2105
  charge_regen: 0.0001
  energy_drawn: 2.5449
  energy_regen: 0.0014
  displacement: 38336
  distance_traveled: 44018
  fault_code: 0
  pid_pos_now: 315.016576
  controller_id: 19
  ntc_temp_mos1: 0.0
  ntc_temp_mos2: 0.0
  ntc_temp_mos3: 0.0
  avg_vd: 0.005
  avg_vq: 0.003
---
header:
  stamp:
    sec: 1744977445
    nanosec: 549252355
  frame_id: ''
state:
  temp_fet: 0.0
  temp_motor: 0.0
  current_motor: 0.0
  current_input: 0.0
  avg_id: 0.0
  avg_iq: 0.0
  duty_cycle: 0.001
  speed: 0.0
  voltage_input: 12.2
  charge_drawn: 0.2105
  charge_regen: 0.0001
  energy_drawn: 2.5449
  energy_regen: 0.0014
  displacement: 38336
  distance_traveled: 44018
  fault_code: 0
  pid_pos_now: 315.049728
  controller_id: 19
  ntc_temp_mos1: 0.0
  ntc_temp_mos2: 0.0
  ntc_temp_mos3: 0.0
  avg_vd: 0.006
  avg_vq: 0.004
---
header:
  stamp:
    sec: 1744977445
    nanosec: 573358522
  frame_id: ''
state:
  temp_fet: 0.0
  temp_motor: 0.0
  current_motor: 0.0
  current_input: 0.0
  avg_id: 0.0
  avg_iq: 0.0
  duty_cycle: 0.0
  speed: 0.0
  voltage_input: 12.2
  charge_drawn: 0.2105
  charge_regen: 0.0001
  energy_drawn: 2.5449
  energy_regen: 0.0014
  displacement: 38336
  distance_traveled: 44018
  fault_code: 0
  pid_pos_now: 315.033184
  controller_id: 19
  ntc_temp_mos1: 0.0
  ntc_temp_mos2: 0.0
  ntc_temp_mos3: 0.0
  avg_vd: 0.005
  avg_vq: 0.003
---
header:
  stamp:
    sec: 1744977445
    nanosec: 593681916
  frame_id: ''
state:
  temp_fet: 0.0
  temp_motor: 0.0
  current_motor: 0.0
  current_input: 0.0
  avg_id: 0.0
  avg_iq: 0.0
  duty_cycle: 0.001
  speed: 0.0
  voltage_input: 12.2
  charge_drawn: 0.2105
  charge_regen: 0.0001
  energy_drawn: 2.5449
  energy_regen: 0.0014
  displacement: 38336
  distance_traveled: 44018
  fault_code: 0
  pid_pos_now: 315.0
  controller_id: 19
  ntc_temp_mos1: 0.0
  ntc_temp_mos2: 0.0
  ntc_temp_mos3: 0.0
  avg_vd: 0.005
  avg_vq: 0.002
---
header:
  stamp:
    sec: 1744977445
    nanosec: 608305773
  frame_id: ''
state:
  temp_fet: 0.0
  temp_motor: 0.0
  current_motor: 0.0
  current_input: 0.0
  avg_id: 0.0
  avg_iq: 0.0
  duty_cycle: 0.0
  speed: 0.0
  voltage_input: 12.2
  charge_drawn: 0.2105
  charge_regen: 0.0001
  energy_drawn: 2.5449
  energy_regen: 0.0014
  displacement: 38336
  distance_traveled: 44018
  fault_code: 0
  pid_pos_now: 315.0
  controller_id: 19
  ntc_temp_mos1: 0.0
  ntc_temp_mos2: 0.0
  ntc_temp_mos3: 0.0
  avg_vd: 0.006
  avg_vq: 0.004
---
header:
  stamp:
    sec: 1744977445
    nanosec: 628523501
  frame_id: ''
state:
  temp_fet: 0.0
  temp_motor: 0.0
  current_motor: 0.0
  current_input: 0.0
  avg_id: 0.0
  avg_iq: 0.0
  duty_cycle: 0.001
  speed: 0.0
  voltage_input: 12.2
  charge_drawn: 0.2105
  charge_regen: 0.0001
  energy_drawn: 2.5449
  energy_regen: 0.0014
  displacement: 38336
  distance_traveled: 44018
  fault_code: 0
  pid_pos_now: 315.005568
  controller_id: 19
  ntc_temp_mos1: 0.0
  ntc_temp_mos2: 0.0
  ntc_temp_mos3: 0.0
  avg_vd: 0.006
  avg_vq: 0.003
---
header:
  stamp:
    sec: 1744977445
    nanosec: 649200051
  frame_id: ''
state:
  temp_fet: 0.0
  temp_motor: 0.0
  current_motor: 0.0
  current_input: 0.0
  avg_id: 0.0
  avg_iq: 0.0
  duty_cycle: 0.0
  speed: 0.0
  voltage_input: 12.2
  charge_drawn: 0.2105
  charge_regen: 0.0001
  energy_drawn: 2.5449
  energy_regen: 0.0014
  displacement: 38336
  distance_traveled: 44018
  fault_code: 0
  pid_pos_now: 315.007872
  controller_id: 19
  ntc_temp_mos1: 0.0
  ntc_temp_mos2: 0.0
  ntc_temp_mos3: 0.0
  avg_vd: 0.005
  avg_vq: 0.003
---
header:
  stamp:
    sec: 1744977445
    nanosec: 673438477
  frame_id: ''
state:
  temp_fet: 0.0
  temp_motor: 0.0
  current_motor: 0.0
  current_input: 0.0
  avg_id: 0.0
  avg_iq: 0.0
  duty_cycle: 0.0
  speed: 0.0
  voltage_input: 12.2
  charge_drawn: 0.2105
  charge_regen: 0.0001
  energy_drawn: 2.5449
  energy_regen: 0.0014
  displacement: 38336
  distance_traveled: 44018
  fault_code: 0
  pid_pos_now: 315.044256
  controller_id: 19
  ntc_temp_mos1: 0.0
  ntc_temp_mos2: 0.0
  ntc_temp_mos3: 0.0
  avg_vd: 0.005
  avg_vq: 0.004
---
header:
  stamp:
    sec: 1744977445
    nanosec: 688683046
  frame_id: ''
state:
  temp_fet: 0.0
  temp_motor: 0.0
  current_motor: 0.0
  current_input: 0.0
  avg_id: 0.0
  avg_iq: 0.0
  duty_cycle: 0.001
  speed: 0.0
  voltage_input: 12.2
  charge_drawn: 0.2105
  charge_regen: 0.0001
  energy_drawn: 2.5449
  energy_regen: 0.0014
  displacement: 38336
  distance_traveled: 44018
  fault_code: 0
  pid_pos_now: 315.022112
  controller_id: 19
  ntc_temp_mos1: 0.0
  ntc_temp_mos2: 0.0
  ntc_temp_mos3: 0.0
  avg_vd: 0.006
  avg_vq: 0.004
---
header:
  stamp:
    sec: 1744977445
    nanosec: 708344318
  frame_id: ''
state:
  temp_fet: 0.0
  temp_motor: 0.0
  current_motor: 0.0
  current_input: 0.0
  avg_id: 0.0
  avg_iq: 0.0
  duty_cycle: 0.0
  speed: 0.0
  voltage_input: 12.2
  charge_drawn: 0.2105
  charge_regen: 0.0001
  energy_drawn: 2.5449
  energy_regen: 0.0014
  displacement: 38336
  distance_traveled: 44018
  fault_code: 0
  pid_pos_now: 315.004672
  controller_id: 19
  ntc_temp_mos1: 0.0
  ntc_temp_mos2: 0.0
  ntc_temp_mos3: 0.0
  avg_vd: 0.006
  avg_vq: 0.003
---
header:
  stamp:
    sec: 1744977445
    nanosec: 733366851
  frame_id: ''
state:
  temp_fet: 0.0
  temp_motor: 0.0
  current_motor: 0.0
  current_input: 0.0
  avg_id: 0.0
  avg_iq: 0.0
  duty_cycle: 0.0
  speed: 0.0
  voltage_input: 12.2
  charge_drawn: 0.2105
  charge_regen: 0.0001
  energy_drawn: 2.5449
  energy_regen: 0.0014
  displacement: 38336
  distance_traveled: 44018
  fault_code: 0
  pid_pos_now: 315.013408
  controller_id: 19
  ntc_temp_mos1: 0.0
  ntc_temp_mos2: 0.0
  ntc_temp_mos3: 0.0
  avg_vd: 0.006
  avg_vq: 0.004
---
header:
  stamp:
    sec: 1744977445
    nanosec: 748277816
  frame_id: ''
state:
  temp_fet: 0.0
  temp_motor: 0.0
  current_motor: 0.0
  current_input: 0.0
  avg_id: 0.0
  avg_iq: 0.0
  duty_cycle: 0.001
  speed: 0.0
  voltage_input: 12.2
  charge_drawn: 0.2105
  charge_regen: 0.0001
  energy_drawn: 2.5449
  energy_regen: 0.0014
  displacement: 38336
  distance_traveled: 44018
  fault_code: 0
  pid_pos_now: 315.005568
  controller_id: 19
  ntc_temp_mos1: 0.0
  ntc_temp_mos2: 0.0
  ntc_temp_mos3: 0.0
  avg_vd: 0.005
  avg_vq: 0.004
---
header:
  stamp:
    sec: 1744977445
    nanosec: 768336470
  frame_id: ''
state:
  temp_fet: 0.0
  temp_motor: 0.0
  current_motor: 0.0
  current_input: 0.0
  avg_id: 0.0
  avg_iq: 0.0
  duty_cycle: 0.001
  speed: 0.0
  voltage_input: 12.2
  charge_drawn: 0.2105
  charge_regen: 0.0001
  energy_drawn: 2.5449
  energy_regen: 0.0014
  displacement: 38336
  distance_traveled: 44018
  fault_code: 0
  pid_pos_now: 315.011072
  controller_id: 19
  ntc_temp_mos1: 0.0
  ntc_temp_mos2: 0.0
  ntc_temp_mos3: 0.0
  avg_vd: 0.005
  avg_vq: 0.003
---
header:
  stamp:
    sec: 1744977445
    nanosec: 793374394
  frame_id: ''
state:
  temp_fet: 0.0
  temp_motor: 0.0
  current_motor: 0.0
  current_input: 0.0
  avg_id: 0.0
  avg_iq: 0.0
  duty_cycle: 0.0
  speed: 0.0
  voltage_input: 12.2
  charge_drawn: 0.2105
  charge_regen: 0.0001
  energy_drawn: 2.5449
  energy_regen: 0.0014
  displacement: 38336
  distance_traveled: 44018
  fault_code: 0
  pid_pos_now: 314.990432
  controller_id: 19
  ntc_temp_mos1: 0.0
  ntc_temp_mos2: 0.0
  ntc_temp_mos3: 0.0
  avg_vd: 0.006
  avg_vq: 0.004
---
header:
  stamp:
    sec: 1744977445
    nanosec: 813388024
  frame_id: ''
state:
  temp_fet: 0.0
  temp_motor: 0.0
  current_motor: 0.0
  current_input: 0.0
  avg_id: 0.0
  avg_iq: 0.0
  duty_cycle: 0.001
  speed: 0.0
  voltage_input: 12.2
  charge_drawn: 0.2105
  charge_regen: 0.0001
  energy_drawn: 2.5449
  energy_regen: 0.0014
  displacement: 38336
  distance_traveled: 44018
  fault_code: 0
  pid_pos_now: 315.049728
  controller_id: 19
  ntc_temp_mos1: 0.0
  ntc_temp_mos2: 0.0
  ntc_temp_mos3: 0.0
  avg_vd: 0.006
  avg_vq: 0.004
---
header:
  stamp:
    sec: 1744977445
    nanosec: 833470774
  frame_id: ''
state:
  temp_fet: 0.0
  temp_motor: 0.0
  current_motor: 0.0
  current_input: 0.0
  avg_id: 0.0
  avg_iq: 0.0
  duty_cycle: 0.0
  speed: 0.0
  voltage_input: 12.2
  charge_drawn: 0.2105
  charge_regen: 0.0001
  energy_drawn: 2.5449
  energy_regen: 0.0014
  displacement: 38336
  distance_traveled: 44018
  fault_code: 0
  pid_pos_now: 315.01104
  controller_id: 19
  ntc_temp_mos1: 0.0
  ntc_temp_mos2: 0.0
  ntc_temp_mos3: 0.0
  avg_vd: 0.006
  avg_vq: 0.004
---
header:
  stamp:
    sec: 1744977445
    nanosec: 854292063
  frame_id: ''
state:
  temp_fet: 0.0
  temp_motor: 0.0
  current_motor: 0.0
  current_input: 0.0
  avg_id: 0.0
  avg_iq: 0.0
  duty_cycle: 0.001
  speed: 0.0
  voltage_input: 12.2
  charge_drawn: 0.2105
  charge_regen: 0.0001
  energy_drawn: 2.5449
  energy_regen: 0.0014
  displacement: 38336
  distance_traveled: 44018
  fault_code: 0
  pid_pos_now: 315.0
  controller_id: 19
  ntc_temp_mos1: 0.0
  ntc_temp_mos2: 0.0
  ntc_temp_mos3: 0.0
  avg_vd: 0.007
