header:
  stamp:
    sec: 1744978632
    nanosec: 436113904
  frame_id: ''
state:
  temp_fet: 0.0
  temp_motor: 0.0
  current_motor: 0.0
  current_input: 0.0
  avg_id: 0.0
  avg_iq: 0.0
  duty_cycle: 0.001
  speed: 0.0
  voltage_input: 11.9
  charge_drawn: 0.0248
  charge_regen: 0.0
  energy_drawn: 0.2953
  energy_regen: 0.0003
  displacement: 8978
  distance_traveled: 14502
  fault_code: 0
  pid_pos_now: 315.007872
  controller_id: 19
  ntc_temp_mos1: 0.0
  ntc_temp_mos2: 0.0
  ntc_temp_mos3: 0.0
  avg_vd: 0.006
  avg_vq: 0.003
---
header:
  stamp:
    sec: 1744978632
    nanosec: 456949341
  frame_id: ''
state:
  temp_fet: 0.0
  temp_motor: 0.0
  current_motor: 0.0
  current_input: 0.0
  avg_id: 0.0
  avg_iq: 0.0
  duty_cycle: 0.0
  speed: 0.0
  voltage_input: 11.9
  charge_drawn: 0.0248
  charge_regen: 0.0
  energy_drawn: 0.2953
  energy_regen: 0.0003
  displacement: 8978
  distance_traveled: 14502
  fault_code: 0
  pid_pos_now: 315.001824
  controller_id: 19
  ntc_temp_mos1: 0.0
  ntc_temp_mos2: 0.0
  ntc_temp_mos3: 0.0
  avg_vd: 0.006
  avg_vq: 0.004
---
header:
  stamp:
    sec: 1744978632
    nanosec: 471088841
  frame_id: ''
state:
  temp_fet: 0.0
  temp_motor: 0.0
  current_motor: 0.0
  current_input: 0.0
  avg_id: 0.0
  avg_iq: 0.0
  duty_cycle: 0.001
  speed: 0.0
  voltage_input: 11.9
  charge_drawn: 0.0248
  charge_regen: 0.0
  energy_drawn: 0.2953
  energy_regen: 0.0003
  displacement: 8978
  distance_traveled: 14502
  fault_code: 0
  pid_pos_now: 315.0
  controller_id: 19
  ntc_temp_mos1: 0.0
  ntc_temp_mos2: 0.0
  ntc_temp_mos3: 0.0
  avg_vd: 0.007
  avg_vq: 0.004
---
header:
  stamp:
    sec: 1744978632
    nanosec: 498074062
  frame_id: ''
state:
  temp_fet: 0.0
  temp_motor: 0.0
  current_motor: 0.0
  current_input: 0.0
  avg_id: 0.0
  avg_iq: 0.0
  duty_cycle: 0.001
  speed: 0.0
  voltage_input: 11.9
  charge_drawn: 0.0248
  charge_regen: 0.0
  energy_drawn: 0.2953
  energy_regen: 0.0003
  displacement: 8978
  distance_traveled: 14502
  fault_code: 0
  pid_pos_now: 315.0
  controller_id: 19
  ntc_temp_mos1: 0.0
  ntc_temp_mos2: 0.0
  ntc_temp_mos3: 0.0
  avg_vd: 0.007
  avg_vq: 0.003
---
header:
  stamp:
    sec: 1744978632
    nanosec: 516341909
  frame_id: ''
state:
  temp_fet: 0.0
  temp_motor: 0.0
  current_motor: 0.0
  current_input: 0.0
  avg_id: 0.0
  avg_iq: 0.0
  duty_cycle: 0.002
  speed: 0.0
  voltage_input: 11.9
  charge_drawn: 0.0248
  charge_regen: 0.0
  energy_drawn: 0.2953
  energy_regen: 0.0003
  displacement: 8978
  distance_traveled: 14502
  fault_code: 0
  pid_pos_now: 314.997568
  controller_id: 19
  ntc_temp_mos1: 0.0
  ntc_temp_mos2: 0.0
  ntc_temp_mos3: 0.0
  avg_vd: 0.007
  avg_vq: 0.005
---
header:
  stamp:
    sec: 1744978632
    nanosec: 536268629
  frame_id: ''
state:
  temp_fet: 0.0
  temp_motor: 0.0
  current_motor: 0.0
  current_input: 0.0
  avg_id: 0.0
  avg_iq: 0.0
  duty_cycle: 0.001
  speed: 0.0
  voltage_input: 11.9
  charge_drawn: 0.0248
  charge_regen: 0.0
  energy_drawn: 0.2953
  energy_regen: 0.0003
  displacement: 8978
  distance_traveled: 14502
  fault_code: 0
  pid_pos_now: 315.0
  controller_id: 19
  ntc_temp_mos1: 0.0
  ntc_temp_mos2: 0.0
  ntc_temp_mos3: 0.0
  avg_vd: 0.007
  avg_vq: 0.004
---
header:
  stamp:
    sec: 1744978632
    nanosec: 551129547
  frame_id: ''
state:
  temp_fet: 0.0
  temp_motor: 0.0
  current_motor: 0.0
  current_input: 0.0
  avg_id: 0.0
  avg_iq: 0.0
  duty_cycle: 0.002
  speed: 0.0
  voltage_input: 11.9
  charge_drawn: 0.0248
  charge_regen: 0.0
  energy_drawn: 0.2953
  energy_regen: 0.0003
  displacement: 8978
  distance_traveled: 14502
  fault_code: 0
  pid_pos_now: 315.0
  controller_id: 19
  ntc_temp_mos1: 0.0
  ntc_temp_mos2: 0.0
  ntc_temp_mos3: 0.0
  avg_vd: 0.006
  avg_vq: 0.003
---
header:
  stamp:
    sec: 1744978632
    nanosec: 571063403
  frame_id: ''
state:
  temp_fet: 0.0
  temp_motor: 0.0
  current_motor: 0.0
  current_input: 0.0
  avg_id: 0.0
  avg_iq: 0.0
  duty_cycle: 0.001
  speed: 0.0
  voltage_input: 11.9
  charge_drawn: 0.0248
  charge_regen: 0.0
  energy_drawn: 0.2953
  energy_regen: 0.0003
  displacement: 8978
  distance_traveled: 14502
  fault_code: 0
  pid_pos_now: 315.0
  controller_id: 19
  ntc_temp_mos1: 0.0
  ntc_temp_mos2: 0.0
  ntc_temp_mos3: 0.0
  avg_vd: 0.006
  avg_vq: 0.004
---
header:
  stamp:
    sec: 1744978632
    nanosec: 591192589
  frame_id: ''
state:
  temp_fet: 0.0
  temp_motor: 0.0
  current_motor: 0.0
  current_input: 0.0
  avg_id: 0.0
  avg_iq: 0.0
  duty_cycle: 0.001
  speed: 0.0
  voltage_input: 11.9
  charge_drawn: 0.0248
  charge_regen: 0.0
  energy_drawn: 0.2953
  energy_regen: 0.0003
  displacement: 8978
  distance_traveled: 14502
  fault_code: 0
  pid_pos_now: 315.012832
  controller_id: 19
  ntc_temp_mos1: 0.0
  ntc_temp_mos2: 0.0
  ntc_temp_mos3: 0.0
  avg_vd: 0.006
  avg_vq: 0.004
---
header:
  stamp:
    sec: 1744978632
    nanosec: 616096116
  frame_id: ''
state:
  temp_fet: 0.0
  temp_motor: 0.0
  current_motor: 0.0
  current_input: 0.0
  avg_id: 0.0
  avg_iq: 0.0
  duty_cycle: 0.001
  speed: 0.0
  voltage_input: 11.9
  charge_drawn: 0.0248
  charge_regen: 0.0
  energy_drawn: 0.2953
  energy_regen: 0.0003
  displacement: 8978
  distance_traveled: 14502
  fault_code: 0
  pid_pos_now: 315.0
  controller_id: 19
  ntc_temp_mos1: 0.0
  ntc_temp_mos2: 0.0
  ntc_temp_mos3: 0.0
  avg_vd: 0.006
  avg_vq: 0.003
---
header:
  stamp:
    sec: 1744978632
    nanosec: 636047188
  frame_id: ''
state:
  temp_fet: 0.0
  temp_motor: 0.0
  current_motor: 0.0
  current_input: 0.0
  avg_id: 0.0
  avg_iq: 0.0
  duty_cycle: 0.001
  speed: 0.0
  voltage_input: 11.9
  charge_drawn: 0.0248
  charge_regen: 0.0
  energy_drawn: 0.2953
  energy_regen: 0.0003
  displacement: 8978
  distance_traveled: 14502
  fault_code: 0
  pid_pos_now: 315.000032
  controller_id: 19
  ntc_temp_mos1: 0.0
  ntc_temp_mos2: 0.0
  ntc_temp_mos3: 0.0
  avg_vd: 0.006
  avg_vq: 0.002
---
header:
  stamp:
    sec: 1744978632
    nanosec: 656112821
  frame_id: ''
state:
  temp_fet: 0.0
  temp_motor: 0.0
  current_motor: 0.0
  current_input: 0.0
  avg_id: 0.0
  avg_iq: 0.0
  duty_cycle: 0.001
  speed: 0.0
  voltage_input: 11.9
  charge_drawn: 0.0248
  charge_regen: 0.0
  energy_drawn: 0.2953
  energy_regen: 0.0003
  displacement: 8978
  distance_traveled: 14502
  fault_code: 0
  pid_pos_now: 315.02992
  controller_id: 19
  ntc_temp_mos1: 0.0
  ntc_temp_mos2: 0.0
  ntc_temp_mos3: 0.0
  avg_vd: 0.005
  avg_vq: 0.003
---
header:
  stamp:
    sec: 1744978632
    nanosec: 675962100
  frame_id: ''
state:
  temp_fet: 0.0
  temp_motor: 0.0
  current_motor: 0.0
  current_input: 0.0
  avg_id: 0.0
  avg_iq: 0.0
  duty_cycle: 0.0
  speed: 0.0
  voltage_input: 11.9
  charge_drawn: 0.0248
  charge_regen: 0.0
  energy_drawn: 0.2953
  energy_regen: 0.0003
  displacement: 8978
  distance_traveled: 14502
  fault_code: 0
  pid_pos_now: 315.004288
  controller_id: 19
  ntc_temp_mos1: 0.0
  ntc_temp_mos2: 0.0
  ntc_temp_mos3: 0.0
  avg_vd: 0.006
  avg_vq: 0.004
---
header:
  stamp:
    sec: 1744978632
    nanosec: 691676342
  frame_id: ''
state:
  temp_fet: 0.0
  temp_motor: 0.0
  current_motor: 0.0
  current_input: 0.0
  avg_id: 0.0
  avg_iq: 0.0
  duty_cycle: 0.001
  speed: 0.0
  voltage_input: 11.9
  charge_drawn: 0.0248
  charge_regen: 0.0
  energy_drawn: 0.2953
  energy_regen: 0.0003
  displacement: 8978
  distance_traveled: 14502
  fault_code: 0
  pid_pos_now: 315.0
  controller_id: 19
  ntc_temp_mos1: 0.0
  ntc_temp_mos2: 0.0
  ntc_temp_mos3: 0.0
  avg_vd: 0.006
  avg_vq: 0.003
---
header:
  stamp:
    sec: 1744978632
    nanosec: 716336442
  frame_id: ''
state:
  temp_fet: 0.0
  temp_motor: 0.0
  current_motor: 0.0
  current_input: 0.0
  avg_id: 0.0
  avg_iq: 0.0
  duty_cycle: 0.001
  speed: 0.0
  voltage_input: 11.9
  charge_drawn: 0.0248
  charge_regen: 0.0
  energy_drawn: 0.2953
  energy_regen: 0.0003
  displacement: 8978
  distance_traveled: 14502
  fault_code: 0
  pid_pos_now: 315.017088
  controller_id: 19
  ntc_temp_mos1: 0.0
  ntc_temp_mos2: 0.0
  ntc_temp_mos3: 0.0
  avg_vd: 0.006
  avg_vq: 0.003
---
header:
  stamp:
    sec: 1744978632
    nanosec: 736267546
  frame_id: ''
state:
  temp_fet: 0.0
  temp_motor: 0.0
  current_motor: 0.0
  current_input: 0.0
  avg_id: 0.0
  avg_iq: 0.0
  duty_cycle: 0.0
  speed: 0.0
  voltage_input: 11.9
  charge_drawn: 0.0248
  charge_regen: 0.0
  energy_drawn: 0.2953
  energy_regen: 0.0003
  displacement: 8978
  distance_traveled: 14502
  fault_code: 0
  pid_pos_now: 314.995072
  controller_id: 19
  ntc_temp_mos1: 0.0
  ntc_temp_mos2: 0.0
  ntc_temp_mos3: 0.0
  avg_vd: 0.006
  avg_vq: 0.003
---
header:
  stamp:
    sec: 1744978632
    nanosec: 751085999
  frame_id: ''
state:
  temp_fet: 0.0
  temp_motor: 0.0
  current_motor: 0.0
  current_input: 0.0
  avg_id: 0.0
  avg_iq: 0.0
  duty_cycle: 0.001
  speed: 0.0
  voltage_input: 11.9
  charge_drawn: 0.0248
  charge_regen: 0.0
  energy_drawn: 0.2953
  energy_regen: 0.0003
  displacement: 8978
  distance_traveled: 14502
  fault_code: 0
  pid_pos_now: 315.0
  controller_id: 19
  ntc_temp_mos1: 0.0
  ntc_temp_mos2: 0.0
  ntc_temp_mos3: 0.0
  avg_vd: 0.006
  avg_vq: 0.004
---
header:
  stamp:
    sec: 1744978632
    nanosec: 771142193
  frame_id: ''
state:
  temp_fet: 0.0
  temp_motor: 0.0
  current_motor: 0.0
  current_input: 0.0
  avg_id: 0.0
  avg_iq: 0.0
  duty_cycle: 0.001
  speed: 0.0
  voltage_input: 11.9
  charge_drawn: 0.0248
  charge_regen: 0.0
  energy_drawn: 0.2953
  energy_regen: 0.0003
  displacement: 8978
  distance_traveled: 14502
  fault_code: 0
  pid_pos_now: 315.012832
  controller_id: 19
  ntc_temp_mos1: 0.0
  ntc_temp_mos2: 0.0
  ntc_temp_mos3: 0.0
  avg_vd: 0.006
  avg_vq: 0.003
---
header:
  stamp:
    sec: 1744978632
    nanosec: 790970767
  frame_id: ''
state:
  temp_fet: 0.0
  temp_motor: 0.0
  current_motor: 0.0
  current_input: 0.0
  avg_id: 0.0
  avg_iq: 0.0
  duty_cycle: 0.001
  speed: 0.0
  voltage_input: 11.9
  charge_drawn: 0.0248
  charge_regen: 0.0
  energy_drawn: 0.2953
  energy_regen: 0.0003
  displacement: 8978
  distance_traveled: 14502
  fault_code: 0
  pid_pos_now: 315.0
  controller_id: 19
  ntc_temp_mos1: 0.0
  ntc_temp_mos2: 0.0
  ntc_temp_mos3: 0.0
  avg_vd: 0.007
  avg_vq: 0.003
---
header:
  stamp:
    sec: 1744978632
    nanosec: 811164882
  frame_id: ''
state:
  temp_fet: 0.0
  temp_motor: 0.0
  current_motor: 0.0
  current_input: 0.0
  avg_id: 0.0
  avg_iq: 0.0
  duty_cycle: 0.001
  speed: 0.0
  voltage_input: 11.9
  charge_drawn: 0.0248
  charge_regen: 0.0
  energy_drawn: 0.2953
  energy_regen: 0.0003
  displacement: 8978
  distance_traveled: 14502
  fault_code: 0
  pid_pos_now: 315.017088
  controller_id: 19
  ntc_temp_mos1: 0.0
  ntc_temp_mos2: 0.0
  ntc_temp_mos3: 0.0
  avg_vd: 0.006
  avg_vq: 0.004
---
header:
  stamp:
    sec: 1744978632
    nanosec: 836220091
  frame_id: ''
state:
  temp_fet: 0.0
  temp_motor: 0.0
  current_motor: 0.0
  current_input: 0.0
  avg_id: 0.0
  avg_iq: 0.0
  duty_cycle: 0.001
  speed: 0.0
  voltage_input: 11.9
  charge_drawn: 0.0248
  charge_regen: 0.0
  energy_drawn: 0.2953
  energy_regen: 0.0003
  displacement: 8978
  distance_traveled: 14502
  fault_code: 0
  pid_pos_now: 315.004288
  controller_id: 19
  ntc_temp_mos1: 0.0
  ntc_temp_mos2: 0.0
  ntc_temp_mos3: 0.0
  avg_vd: 0.006
  avg_vq: 0.002
---
header:
  stamp:
    sec: 1744978632
    nanosec: 851378774
  frame_id: ''
state:
  temp_fet: 0.0
  temp_motor: 0.0
  current_motor: 0.0
  current_input: 0.0
  avg_id: 0.0
  avg_iq: 0.0
  duty_cycle: 0.001
  speed: 0.0
  voltage_input: 11.9
  charge_drawn: 0.0248
  charge_regen: 0.0
  energy_drawn: 0.2953
  energy_regen: 0.0003
  displacement: 8978
  distance_traveled: 14502
  fault_code: 0
  pid_pos_now: 315.0
  controller_id: 19
  ntc_temp_mos1: 0.0
  ntc_temp_mos2: 0.0
  ntc_temp_mos3: 0.0
  avg_vd: 0.007
  avg_vq: 0.004
---
header:
  stamp:
    sec: 1744978632
    nanosec: 871038706
  frame_id: ''
state:
  temp_fet: 0.0
  temp_motor: 0.0
  current_motor: 0.0
  current_input: 0.0
  avg_id: 0.0
  avg_iq: 0.0
  duty_cycle: 0.0
  speed: 0.0
  voltage_input: 11.9
  charge_drawn: 0.0248
  charge_regen: 0.0
  energy_drawn: 0.2953
  energy_regen: 0.0003
  displacement: 8978
  distance_traveled: 14502
  fault_code: 0
  pid_pos_now: 314.998688
  controller_id: 19
  ntc_temp_mos1: 0.0
  ntc_temp_mos2: 0.0
  ntc_temp_mos3: 0.0
  avg_vd: 0.006
  avg_vq: 0.003
---
header:
  stamp:
    sec: 1744978632
    nanosec: 896284318
  frame_id: ''
state:
  temp_fet: 0.0
  temp_motor: 0.0
  current_motor: 0.0
  current_input: 0.0
  avg_id: 0.0
  avg_iq: 0.0
  duty_cycle: 0.001
  speed: 0.0
  voltage_input: 11.9
  charge_drawn: 0.0248
  charge_regen: 0.0
  energy_drawn: 0.2953
  energy_regen: 0.0003
  displacement: 8978
  distance_traveled: 14502
  fault_code: 0
  pid_pos_now: 315.017088
  controller_id: 19
  ntc_temp_mos1: 0.0
  ntc_temp_mos2: 0.0
  ntc_temp_mos3: 0.0
  avg_vd: 0.006
  avg_vq: 0.004
---
header:
  stamp:
    sec: 1744978632
    nanosec: 911217429
  frame_id: ''
state:
  temp_fet: 0.0
  temp_motor: 0.0
  current_motor: 0.0
  current_input: 0.0
  avg_id: 0.0
  avg_iq: 0.0
  duty_cycle: 0.0
  speed: 0.0
  voltage_input: 11.9
  charge_drawn: 0.0248
  charge_regen: 0.0
  energy_drawn: 0.2953
  energy_regen: 0.0003
  displacement: 8978
  distance_traveled: 14502
  fault_code: 0
  pid_pos_now: 315.021344
  controller_id: 19
  ntc_temp_mos1: 0.0
  ntc_temp_mos2: 0.0
  ntc_temp_mos3: 0.0
  avg_vd: 0.007
  avg_vq: 0.004
---
header:
  stamp:
    sec: 1744978632
    nanosec: 936229246
  frame_id: ''
state:
  temp_fet: 0.0
  temp_motor: 0.0
  current_motor: 0.0
  current_input: 0.0
  avg_id: 0.0
  avg_iq: 0.0
  duty_cycle: 0.001
  speed: 0.0
  voltage_input: 11.9
  charge_drawn: 0.0248
  charge_regen: 0.0
  energy_drawn: 0.2953
  energy_regen: 0.0003
  displacement: 8978
  distance_traveled: 14502
  fault_code: 0
  pid_pos_now: 315.0
  controller_id: 19
  ntc_temp_mos1: 0.0
  ntc_temp_mos2: 0.0
  ntc_temp_mos3: 0.0
  avg_vd: 0.006
  avg_vq: 0.003
---
header:
  stamp:
    sec: 1744978632
    nanosec: 950937074
  frame_id: ''
state:
  temp_fet: 0.0
  temp_motor: 0.0
  current_motor: 0.0
  current_input: 0.0
  avg_id: 0.0
  avg_iq: 0.0
  duty_cycle: 0.001
  speed: 0.0
  voltage_input: 11.9
  charge_drawn: 0.0248
  charge_regen: 0.0
  energy_drawn: 0.2953
  energy_regen: 0.0003
  displacement: 8978
  distance_traveled: 14502
  fault_code: 0
  pid_pos_now: 315.0
  controller_id: 19
  ntc_temp_mos1: 0.0
  ntc_temp_mos2: 0.0
  ntc_temp_mos3: 0.0
  avg_vd: 0.007
  avg_vq: 0.004
---
header:
  stamp:
    sec: 1744978632
    nanosec: 976311936
  frame_id: ''
state:
  temp_fet: 0.0
  temp_motor: 0.0
  current_motor: 0.0
  current_input: 0.0
  avg_id: 0.0
  avg_iq: 0.0
  duty_cycle: -0.001
  speed: 0.0
  voltage_input: 11.9
  charge_drawn: 0.0248
  charge_regen: 0.0
  energy_drawn: 0.2953
  energy_regen: 0.0003
  displacement: 8978
  distance_traveled: 14502
  fault_code: 0
  pid_pos_now: 314.995072
  controller_id: 19
  ntc_temp_mos1: 0.0
  ntc_temp_mos2: 0.0
  ntc_temp_mos3: 0.0
  avg_vd: 0.006
  avg_vq: 0.003
---
header:
  stamp:
    sec: 1744978632
    nanosec: 995996956
  frame_id: ''
state:
  temp_fet: 0.0
  temp_motor: 0.0
  current_motor: 0.0
  current_input: 0.0
  avg_id: 0.0
  avg_iq: 0.0
  duty_cycle: 0.0
  speed: 0.0
  voltage_input: 11.9
  charge_drawn: 0.0248
  charge_regen: 0.0
  energy_drawn: 0.2953
  energy_regen: 0.0003
  displacement: 8978
  distance_traveled: 14502
  fault_code: 0
  pid_pos_now: 314.995072
  controller_id: 19
  ntc_temp_mos1: 0.0
  ntc_temp_mos2: 0.0
  ntc_temp_mos3: 0.0
  avg_vd: 0.006
  avg_vq: 0.003
---
header:
  stamp:
    sec: 1744978633
    nanosec: 11400090
  frame_id: ''
state:
  temp_fet: 0.0
  temp_motor: 0.0
  current_motor: 0.0
  current_input: 0.0
  avg_id: 0.0
  avg_iq: 0.0
  duty_cycle: 0.001
  speed: 0.0
  voltage_input: 11.9
  charge_drawn: 0.0248
  charge_regen: 0.0
  energy_drawn: 0.2953
  energy_regen: 0.0003
  displacement: 8978
  distance_traveled: 14502
  fault_code: 0
  pid_pos_now: 315.0
  controller_id: 19
  ntc_temp_mos1: 0.0
  ntc_temp_mos2: 0.0
  ntc_temp_mos3: 0.0
  avg_vd: 0.006
  avg_vq: 0.003
---
header:
  stamp:
    sec: 1744978633
    nanosec: 36142719
  frame_id: ''
state:
  temp_fet: 0.0
  temp_motor: 0.0
  current_motor: 0.0
  current_input: 0.0
  avg_id: 0.0
  avg_iq: 0.0
  duty_cycle: 0.001
  speed: 0.0
  voltage_input: 11.9
  charge_drawn: 0.0248
  charge_regen: 0.0
  energy_drawn: 0.2953
  energy_regen: 0.0003
  displacement: 8978
  distance_traveled: 14502
  fault_code: 0
  pid_pos_now: 315.0
  controller_id: 19
  ntc_temp_mos1: 0.0
  ntc_temp_mos2: 0.0
  ntc_temp_mos3: 0.0
  avg_vd: 0.005
  avg_vq: 0.003
---
header:
  stamp:
    sec: 1744978633
    nanosec: 56161984
  frame_id: ''
state:
  temp_fet: 0.0
  temp_motor: 0.0
  current_motor: 0.0
  current_input: 0.0
  avg_id: 0.0
  avg_iq: 0.0
  duty_cycle: 0.001
  speed: 0.0
  voltage_input: 11.9
  charge_drawn: 0.0248
  charge_regen: 0.0
  energy_drawn: 0.2953
  energy_regen: 0.0003
  displacement: 8978
  distance_traveled: 14502
  fault_code: 0
  pid_pos_now: 315.012832
  controller_id: 19
  ntc_temp_mos1: 0.0
  ntc_temp_mos2: 0.0
  ntc_temp_mos3: 0.0
  avg_vd: 0.006
  avg_vq: 0.004
---
header:
  stamp:
    sec: 1744978633
    nanosec: 76159328
  frame_id: ''
state:
  temp_fet: 0.0
  temp_motor: 0.0
  current_motor: 0.0
  current_input: 0.0
  avg_id: 0.0
  avg_iq: 0.0
  duty_cycle: 0.0
  speed: 0.0
  voltage_input: 11.9
  charge_drawn: 0.0248
  charge_regen: 0.0
  energy_drawn: 0.2953
  energy_regen: 0.0003
  displacement: 8978
  distance_traveled: 14502
  fault_code: 0
  pid_pos_now: 315.012832
  controller_id: 19
  ntc_temp_mos1: 0.0
  ntc_temp_mos2: 0.0
  ntc_temp_mos3: 0.0
  avg_vd: 0.005
  avg_vq: 0.003
---
header:
  stamp:
    sec: 1744978633
    nanosec: 96085760
  frame_id: ''
state:
  temp_fet: 0.0
  temp_motor: 0.0
  current_motor: 0.0
  current_input: 0.0
  avg_id: 0.0
  avg_iq: 0.0
  duty_cycle: 0.0
  speed: 0.0
  voltage_input: 11.9
  charge_drawn: 0.0248
  charge_regen: 0.0
  energy_drawn: 0.2953
  energy_regen: 0.0003
  displacement: 8978
  distance_traveled: 14502
  fault_code: 0
  pid_pos_now: 315.0
  controller_id: 19
  ntc_temp_mos1: 0.0
  ntc_temp_mos2: 0.0
  ntc_temp_mos3: 0.0
  avg_vd: 0.006
  avg_vq: 0.004
---
header:
  stamp:
    sec: 1744978633
    nanosec: 116108129
  frame_id: ''
state:
  temp_fet: 0.0
  temp_motor: 0.0
  current_motor: 0.0
  current_input: 0.0
  avg_id: 0.0
  avg_iq: 0.0
  duty_cycle: 0.002
  speed: 0.0
  voltage_input: 11.9
  charge_drawn: 0.0248
  charge_regen: 0.0
  energy_drawn: 0.2953
  energy_regen: 0.0003
  displacement: 8978
  distance_traveled: 14502
  fault_code: 0
  pid_pos_now: 315.0
  controller_id: 19
  ntc_temp_mos1: 0.0
  ntc_temp_mos2: 0.0
  ntc_temp_mos3: 0.0
  avg_vd: 0.006
  avg_vq: 0.004
---
header:
  stamp:
    sec: 1744978633
    nanosec: 136012832
  frame_id: ''
state:
  temp_fet: 0.0
  temp_motor: 0.0
  current_motor: 0.0
  current_input: 0.0
  avg_id: 0.0
  avg_iq: 0.0
  duty_cycle: 0.0
  speed: 0.0
  voltage_input: 11.9
  charge_drawn: 0.0248
  charge_regen: 0.0
  energy_drawn: 0.2953
  energy_regen: 0.0003
  displacement: 8978
  distance_traveled: 14502
  fault_code: 0
  pid_pos_now: 315.0
  controller_id: 19
  ntc_temp_mos1: 0.0
  ntc_temp_mos2: 0.0
  ntc_temp_mos3: 0.0
  avg_vd: 0.007
  avg_vq: 0.004
---
header:
  stamp:
    sec: 1744978633
    nanosec: 156043329
  frame_id: ''
state:
  temp_fet: 0.0
  temp_motor: 0.0
  current_motor: 0.0
  current_input: 0.0
  avg_id: 0.0
  avg_iq: 0.0
  duty_cycle: 0.0
  speed: 0.0
  voltage_input: 11.9
  charge_drawn: 0.0248
  charge_regen: 0.0
  energy_drawn: 0.2953
  energy_regen: 0.0003
  displacement: 8978
  distance_traveled: 14502
  fault_code: 0
  pid_pos_now: 314.963008
  controller_id: 19
  ntc_temp_mos1: 0.0
  ntc_temp_mos2: 0.0
  ntc_temp_mos3: 0.0
  avg_vd: 0.006
  avg_vq: 0.003
---
header:
  stamp:
    sec: 1744978633
    nanosec: 176128322
  frame_id: ''
state:
  temp_fet: 0.0
  temp_motor: 0.0
  current_motor: 0.0
  current_input: 0.0
  avg_id: 0.0
  avg_iq: 0.0
  duty_cycle: 0.001
  speed: 0.0
  voltage_input: 11.9
  charge_drawn: 0.0248
  charge_regen: 0.0
  energy_drawn: 0.2953
  energy_regen: 0.0003
  displacement: 8978
  distance_traveled: 14502
  fault_code: 0
  pid_pos_now: 315.0
  controller_id: 19
  ntc_temp_mos1: 0.0
  ntc_temp_mos2: 0.0
  ntc_temp_mos3: 0.0
  avg_vd: 0.007
  avg_vq: 0.003
---
header:
  stamp:
    sec: 1744978633
    nanosec: 196054146
  frame_id: ''
state:
  temp_fet: 0.0
  temp_motor: 0.0
  current_motor: 0.0
  current_input: 0.0
  avg_id: 0.0
  avg_iq: 0.0
  duty_cycle: 0.001
  speed: 0.0
  voltage_input: 11.9
  charge_drawn: 0.0248
  charge_regen: 0.0
  energy_drawn: 0.2953
  energy_regen: 0.0003
  displacement: 8978
  distance_traveled: 14502
  fault_code: 0
  pid_pos_now: 315.051264
  controller_id: 19
  ntc_temp_mos1: 0.0
  ntc_temp_mos2: 0.0
  ntc_temp_mos3: 0.0
  avg_vd: 0.006
  avg_vq: 0.004
---
header:
  stamp:
    sec: 1744978633
    nanosec: 211154172
  frame_id: ''
state:
  temp_fet: 0.0
  temp_motor: 0.0
  current_motor: 0.0
  current_input: 0.0
  avg_id: 0.0
  avg_iq: 0.0
  duty_cycle: 0.001
  speed: 0.0
  voltage_input: 11.9
  charge_drawn: 0.0248
  charge_regen: 0.0
  energy_drawn: 0.2953
  energy_regen: 0.0003
  displacement: 8978
  distance_traveled: 14502
  fault_code: 0
  pid_pos_now: 315.021376
  controller_id: 19
  ntc_temp_mos1: 0.0
  ntc_temp_mos2: 0.0
  ntc_temp_mos3: 0.0
  avg_vd: 0.007
  avg_vq: 0.003
---
header:
  stamp:
    sec: 1744978633
    nanosec: 236243910
  frame_id: ''
state:
  temp_fet: 0.0
  temp_motor: 0.0
  current_motor: 0.0
  current_input: 0.0
  avg_id: 0.0
  avg_iq: 0.0
  duty_cycle: 0.0
  speed: 0.0
  voltage_input: 11.9
  charge_drawn: 0.0248
  charge_regen: 0.0
  energy_drawn: 0.2953
  energy_regen: 0.0003
  displacement: 8978
  distance_traveled: 14502
  fault_code: 0
  pid_pos_now: 315.0
  controller_id: 19
  ntc_temp_mos1: 0.0
  ntc_temp_mos2: 0.0
  ntc_temp_mos3: 0.0
  avg_vd: 0.007
  avg_vq: 0.003
---
header:
  stamp:
    sec: 1744978633
    nanosec: 251197149
  frame_id: ''
state:
  temp_fet: 0.0
  temp_motor: 0.0
  current_motor: 0.0
  current_input: 0.0
  avg_id: 0.0
  avg_iq: 0.0
  duty_cycle: 0.001
  speed: 0.0
  voltage_input: 11.9
  charge_drawn: 0.0248
  charge_regen: 0.0
  energy_drawn: 0.2953
  energy_regen: 0.0003
  displacement: 8978
  distance_traveled: 14502
  fault_code: 0
  pid_pos_now: 315.004288
  controller_id: 19
  ntc_temp_mos1: 0.0
  ntc_temp_mos2: 0.0
  ntc_temp_mos3: 0.0
  avg_vd: 0.006
  avg_vq: 0.003
---
header:
  stamp:
    sec: 1744978633
    nanosec: 276197990
  frame_id: ''
state:
  temp_fet: 0.0
  temp_motor: 0.0
  current_motor: 0.0
  current_input: 0.0
  avg_id: 0.0
  avg_iq: 0.0
  duty_cycle: 0.001
  speed: 0.0
  voltage_input: 11.9
  charge_drawn: 0.0248
  charge_regen: 0.0
  energy_drawn: 0.2953
  energy_regen: 0.0003
  displacement: 8978
  distance_traveled: 14502
  fault_code: 0
  pid_pos_now: 315.0
  controller_id: 19
  ntc_temp_mos1: 0.0
  ntc_temp_mos2: 0.0
  ntc_temp_mos3: 0.0
  avg_vd: 0.006
  avg_vq: 0.003
---
header:
  stamp:
    sec: 1744978633
    nanosec: 296185734
  frame_id: ''
state:
  temp_fet: 0.0
  temp_motor: 0.0
  current_motor: 0.0
  current_input: 0.0
  avg_id: 0.0
  avg_iq: 0.0
  duty_cycle: 0.001
  speed: 0.0
  voltage_input: 11.9
  charge_drawn: 0.0248
  charge_regen: 0.0
  energy_drawn: 0.2953
  energy_regen: 0.0003
  displacement: 8978
  distance_traveled: 14502
  fault_code: 0
  pid_pos_now: 315.008544
  controller_id: 19
  ntc_temp_mos1: 0.0
  ntc_temp_mos2: 0.0
  ntc_temp_mos3: 0.0
  avg_vd: 0.006
  avg_vq: 0.002
---
header:
  stamp:
    sec: 1744978633
    nanosec: 315967876
  frame_id: ''
state:
  temp_fet: 0.0
  temp_motor: 0.0
  current_motor: 0.0
  current_input: 0.0
  avg_id: 0.0
  avg_iq: 0.0
  duty_cycle: 0.001
  speed: 0.0
  voltage_input: 11.9
  charge_drawn: 0.0248
  charge_regen: 0.0
  energy_drawn: 0.2953
  energy_regen: 0.0003
  displacement: 8978
  distance_traveled: 14502
  fault_code: 0
  pid_pos_now: 315.004288
  controller_id: 19
  ntc_temp_mos1: 0.0
  ntc_temp_mos2: 0.0
  ntc_temp_mos3: 0.0
  avg_vd: 0.006
  avg_vq: 0.002
---
header:
  stamp:
    sec: 1744978633
    nanosec: 331204383
  frame_id: ''
state:
  temp_fet: 0.0
  temp_motor: 0.0
  current_motor: 0.0
  current_input: 0.0
  avg_id: 0.0
  avg_iq: 0.0
  duty_cycle: 0.0
  speed: 0.0
  voltage_input: 11.9
  charge_drawn: 0.0248
  charge_regen: 0.0
  energy_drawn: 0.2953
  energy_regen: 0.0003
  displacement: 8978
  distance_traveled: 14502
  fault_code: 0
  pid_pos_now: 314.993728
  controller_id: 19
  ntc_temp_mos1: 0.0
  ntc_temp_mos2: 0.0
  ntc_temp_mos3: 0.0
  avg_vd: 0.007
  avg_vq: 0.004
---
header:
  stamp:
    sec: 1744978633
    nanosec: 356019077
  frame_id: ''
state:
  temp_fet: 0.0
  temp_motor: 0.0
  current_motor: 0.0
  current_input: 0.0
  avg_id: 0.0
  avg_iq: 0.0
  duty_cycle: 0.0
  speed: 0.0
  voltage_input: 11.9
  charge_drawn: 0.0248
  charge_regen: 0.0
  energy_drawn: 0.2953
  energy_regen: 0.0003
  displacement: 8978
  distance_traveled: 14502
  fault_code: 0
  pid_pos_now: 314.985184
  controller_id: 19
  ntc_temp_mos1: 0.0
  ntc_temp_mos2: 0.0
  ntc_temp_mos3: 0.0
  avg_vd: 0.006
  avg_vq: 0.003
---
header:
  stamp:
    sec: 1744978633
    nanosec: 376269417
  frame_id: ''
state:
  temp_fet: 0.0
  temp_motor: 0.0
  current_motor: 0.0
  current_input: 0.0
  avg_id: 0.0
  avg_iq: 0.0
  duty_cycle: 0.0
  speed: 0.0
  voltage_input: 11.9
  charge_drawn: 0.0248
  charge_regen: 0.0
  energy_drawn: 0.2953
  energy_regen: 0.0003
  displacement: 8978
  distance_traveled: 14502
  fault_code: 0
  pid_pos_now: 315.008544
  controller_id: 19
  ntc_temp_mos1: 0.0
  ntc_temp_mos2: 0.0
  ntc_temp_mos3: 0.0
  avg_vd: 0.005
  avg_vq: 0.003
---
header:
  stamp:
    sec: 1744978633
    nanosec: 396165928
  frame_id: ''
state:
  temp_fet: 0.0
  temp_motor: 0.0
  current_motor: 0.0
  current_input: 0.0
  avg_id: 0.0
  avg_iq: 0.0
  duty_cycle: 0.001
  speed: 0.0
  voltage_input: 11.9
  charge_drawn: 0.0248
  charge_regen: 0.0
  energy_drawn: 0.2953
  energy_regen: 0.0003
  displacement: 8978
  distance_traveled: 14502
  fault_code: 0
  pid_pos_now: 315.000032
  controller_id: 19
  ntc_temp_mos1: 0.0
  ntc_temp_mos2: 0.0
  ntc_temp_mos3: 0.0
  avg_vd: 0.007
  avg_vq: 0.005
---
header:
  stamp:
    sec: 1744978633
    nanosec: 411056543
  frame_id: ''
state:
  temp_fet: 0.0
  temp_motor: 0.0
  current_motor: 0.0
  current_input: 0.0
  avg_id: 0.0
  avg_iq: 0.0
  duty_cycle: 0.001
  speed: 0.0
  voltage_input: 11.9
  charge_drawn: 0.0248
  charge_regen: 0.0
  energy_drawn: 0.2953
  energy_regen: 0.0003
  displacement: 8978
  distance_traveled: 14502
  fault_code: 0
  pid_pos_now: 315.004288
  controller_id: 19
  ntc_temp_mos1: 0.0
  ntc_temp_mos2: 0.0
  ntc_temp_mos3: 0.0
  avg_vd: 0.006
  avg_vq: 0.003
---
header:
  stamp:
    sec: 1744978633
    nanosec: 436195370
  frame_id: ''
state:
  temp_fet: 0.0
  temp_motor: 0.0
  current_motor: 0.0
  current_input: 0.0
  avg_id: 0.0
  avg_iq: 0.0
  duty_cycle: 0.001
  speed: 0.0
  voltage_input: 11.9
  charge_drawn: 0.0248
  charge_regen: 0.0
  energy_drawn: 0.2953
  energy_regen: 0.0003
  displacement: 8978
  distance_traveled: 14502
  fault_code: 0
  pid_pos_now: 315.0
  controller_id: 19
  ntc_temp_mos1: 0.0
  ntc_temp_mos2: 0.0
  ntc_temp_mos3: 0.0
  avg_vd: 0.007
  avg_vq: 0.003
---
header:
  stamp:
    sec: 1744978633
    nanosec: 451262435
  frame_id: ''
state:
  temp_fet: 0.0
  temp_motor: 0.0
  current_motor: 0.0
  current_input: 0.0
  avg_id: 0.0
  avg_iq: 0.0
  duty_cycle: 0.001
  speed: 0.0
  voltage_input: 11.9
  charge_drawn: 0.0248
  charge_regen: 0.0
  energy_drawn: 0.2953
  energy_regen: 0.0003
  displacement: 8978
  distance_traveled: 14502
  fault_code: 0
  pid_pos_now: 315.0
  controller_id: 19
  ntc_temp_mos1: 0.0
  ntc_temp_mos2: 0.0
  ntc_temp_mos3: 0.0
  avg_vd: 0.006
  avg_vq: 0.004
---
header:
  stamp:
    sec: 1744978633
    nanosec: 471034144
  frame_id: ''
state:
  temp_fet: 0.0
  temp_motor: 0.0
  current_motor: 0.0
  current_input: 0.0
  avg_id: 0.0
  avg_iq: 0.0
  duty_cycle: 0.001
  speed: 0.0
  voltage_input: 11.9
  charge_drawn: 0.0248
  charge_regen: 0.0
  energy_drawn: 0.2953
  energy_regen: 0.0003
  displacement: 8978
  distance_traveled: 14502
  fault_code: 0
  pid_pos_now: 315.004288
  controller_id: 19
  ntc_temp_mos1: 0.0
  ntc_temp_mos2: 0.0
  ntc_temp_mos3: 0.0
  avg_vd: 0.007
  avg_vq: 0.004
---
header:
  stamp:
    sec: 1744978633
    nanosec: 490965088
  frame_id: ''
state:
  temp_fet: 0.0
  temp_motor: 0.0
  current_motor: 0.0
  current_input: 0.0
  avg_id: 0.0
  avg_iq: 0.0
  duty_cycle: 0.001
  speed: 0.0
  voltage_input: 11.9
  charge_drawn: 0.0248
  charge_regen: 0.0
  energy_drawn: 0.2953
  energy_regen: 0.0003
  displacement: 8978
  distance_traveled: 14502
  fault_code: 0
  pid_pos_now: 315.0
  controller_id: 19
  ntc_temp_mos1: 0.0
  ntc_temp_mos2: 0.0
  ntc_temp_mos3: 0.0
  avg_vd: 0.006
  avg_vq: 0.004
---
header:
  stamp:
    sec: 1744978633
    nanosec: 516077226
  frame_id: ''
state:
  temp_fet: 0.0
  temp_motor: 0.0
  current_motor: 0.0
  current_input: 0.0
  avg_id: 0.0
  avg_iq: 0.0
  duty_cycle: 0.0
  speed: 0.0
  voltage_input: 11.9
  charge_drawn: 0.0248
  charge_regen: 0.0
  energy_drawn: 0.2953
  energy_regen: 0.0003
  displacement: 8978
  distance_traveled: 14502
  fault_code: 0
  pid_pos_now: 315.0
  controller_id: 19
  ntc_temp_mos1: 0.0
  ntc_temp_mos2: 0.0
  ntc_temp_mos3: 0.0
  avg_vd: 0.007
  avg_vq: 0.004
---
header:
  stamp:
    sec: 1744978633
    nanosec: 536167692
  frame_id: ''
state:
  temp_fet: 0.0
  temp_motor: 0.0
  current_motor: 0.0
  current_input: 0.0
  avg_id: 0.0
  avg_iq: 0.0
  duty_cycle: 0.0
  speed: 0.0
  voltage_input: 11.9
  charge_drawn: 0.0248
  charge_regen: 0.0
  energy_drawn: 0.2953
  energy_regen: 0.0003
  displacement: 8978
  distance_traveled: 14502
  fault_code: 0
  pid_pos_now: 315.0
  controller_id: 19
  ntc_temp_mos1: 0.0
  ntc_temp_mos2: 0.0
  ntc_temp_mos3: 0.0
  avg_vd: 0.007
  avg_vq: 0.003
---
header:
  stamp:
    sec: 1744978633
    nanosec: 556119884
  frame_id: ''
state:
  temp_fet: 0.0
  temp_motor: 0.0
  current_motor: 0.0
  current_input: 0.0
  avg_id: 0.0
  avg_iq: 0.0
  duty_cycle: 0.002
  speed: 0.0
  voltage_input: 11.9
  charge_drawn: 0.0248
  charge_regen: 0.0
  energy_drawn: 0.2953
  energy_regen: 0.0003
  displacement: 8978
  distance_traveled: 14502
  fault_code: 0
  pid_pos_now: 315.021376
  controller_id: 19
  ntc_temp_mos1: 0.0
  ntc_temp_mos2: 0.0
  ntc_temp_mos3: 0.0
  avg_vd: 0.006
  avg_vq: 0.003
---
header:
  stamp:
    sec: 1744978633
    nanosec: 576169229
  frame_id: ''
state:
  temp_fet: 0.0
  temp_motor: 0.0
  current_motor: 0.0
  current_input: 0.0
  avg_id: 0.0
  avg_iq: 0.0
  duty_cycle: 0.0
  speed: 0.0
  voltage_input: 11.9
  charge_drawn: 0.0248
  charge_regen: 0.0
  energy_drawn: 0.2953
  energy_regen: 0.0003
  displacement: 8978
  distance_traveled: 14502
  fault_code: 0
  pid_pos_now: 315.015776
  controller_id: 19
  ntc_temp_mos1: 0.0
  ntc_temp_mos2: 0.0
  ntc_temp_mos3: 0.0
  avg_vd: 0.007
  avg_vq: 0.004
---
header:
  stamp:
    sec: 1744978633
    nanosec: 595947978
  frame_id: ''
state:
  temp_fet: 0.0
  temp_motor: 0.0
  current_motor: 0.0
  current_input: 0.0
  avg_id: 0.0
  avg_iq: 0.0
  duty_cycle: 0.001
  speed: 0.0
  voltage_input: 11.9
  charge_drawn: 0.0248
  charge_regen: 0.0
  energy_drawn: 0.2953
  energy_regen: 0.0003
  displacement: 8978
  distance_traveled: 14502
  fault_code: 0
  pid_pos_now: 315.025632
  controller_id: 19
  ntc_temp_mos1: 0.0
  ntc_temp_mos2: 0.0
  ntc_temp_mos3: 0.0
  avg_vd: 0.007
  avg_vq: 0.003
---
header:
  stamp:
    sec: 1744978633
    nanosec: 616222063
  frame_id: ''
state:
  temp_fet: 0.0
  temp_motor: 0.0
  current_motor: 0.0
  current_input: 0.0
  avg_id: 0.0
  avg_iq: 0.0
  duty_cycle: 0.0
  speed: 0.0
  voltage_input: 11.9
  charge_drawn: 0.0248
  charge_regen: 0.0
  energy_drawn: 0.2953
  energy_regen: 0.0003
  displacement: 8978
  distance_traveled: 14502
  fault_code: 0
  pid_pos_now: 315.0
  controller_id: 19
  ntc_temp_mos1: 0.0
  ntc_temp_mos2: 0.0
  ntc_temp_mos3: 0.0
  avg_vd: 0.006
  avg_vq: 0.003
---
header:
  stamp:
    sec: 1744978633
    nanosec: 636220495
  frame_id: ''
state:
  temp_fet: 0.0
  temp_motor: 0.0
  current_motor: 0.0
  current_input: 0.0
  avg_id: 0.0
  avg_iq: 0.0
  duty_cycle: 0.001
  speed: 0.0
  voltage_input: 11.9
  charge_drawn: 0.0248
  charge_regen: 0.0
  energy_drawn: 0.2953
  energy_regen: 0.0003
  displacement: 8978
  distance_traveled: 14502
  fault_code: 0
  pid_pos_now: 315.0
  controller_id: 19
  ntc_temp_mos1: 0.0
  ntc_temp_mos2: 0.0
  ntc_temp_mos3: 0.0
  avg_vd: 0.006
  avg_vq: 0.003
---
header:
  stamp:
    sec: 1744978633
    nanosec: 651132806
  frame_id: ''
state:
  temp_fet: 0.0
  temp_motor: 0.0
  current_motor: 0.0
  current_input: 0.0
  avg_id: 0.0
  avg_iq: 0.0
  duty_cycle: 0.0
  speed: 0.0
  voltage_input: 11.9
  charge_drawn: 0.0248
  charge_regen: 0.0
  energy_drawn: 0.2953
  energy_regen: 0.0003
  displacement: 8978
  distance_traveled: 14502
  fault_code: 0
  pid_pos_now: 315.008544
  controller_id: 19
  ntc_temp_mos1: 0.0
  ntc_temp_mos2: 0.0
  ntc_temp_mos3: 0.0
  avg_vd: 0.006
  avg_vq: 0.004
---
header:
  stamp:
    sec: 1744978633
    nanosec: 676202416
  frame_id: ''
state:
  temp_fet: 0.0
  temp_motor: 0.0
  current_motor: 0.0
  current_input: 0.0
  avg_id: 0.0
  avg_iq: 0.0
  duty_cycle: 0.002
  speed: 0.0
  voltage_input: 11.9
  charge_drawn: 0.0248
  charge_regen: 0.0
  energy_drawn: 0.2953
  energy_regen: 0.0003
  displacement: 8978
  distance_traveled: 14502
  fault_code: 0
  pid_pos_now: 315.0
  controller_id: 19
  ntc_temp_mos1: 0.0
  ntc_temp_mos2: 0.0
  ntc_temp_mos3: 0.0
  avg_vd: 0.006
  avg_vq: 0.004
---
header:
  stamp:
    sec: 1744978633
    nanosec: 691062374
  frame_id: ''
state:
  temp_fet: 0.0
  temp_motor: 0.0
  current_motor: 0.0
  current_input: 0.0
  avg_id: 0.0
  avg_iq: 0.0
  duty_cycle: 0.0
  speed: 0.0
  voltage_input: 11.9
  charge_drawn: 0.0248
  charge_regen: 0.0
  energy_drawn: 0.2953
  energy_regen: 0.0003
  displacement: 8978
  distance_traveled: 14502
  fault_code: 0
  pid_pos_now: 314.996896
  controller_id: 19
  ntc_temp_mos1: 0.0
  ntc_temp_mos2: 0.0
  ntc_temp_mos3: 0.0
  avg_vd: 0.006
  avg_vq: 0.004
---
header:
  stamp:
    sec: 1744978633
    nanosec: 711069319
  frame_id: ''
state:
  temp_fet: 0.0
  temp_motor: 0.0
  current_motor: 0.0
  current_input: 0.0
  avg_id: 0.0
  avg_iq: 0.0
  duty_cycle: 0.001
  speed: 0.0
  voltage_input: 11.9
  charge_drawn: 0.0248
  charge_regen: 0.0
  energy_drawn: 0.2953
  energy_regen: 0.0003
  displacement: 8978
  distance_traveled: 14502
  fault_code: 0
  pid_pos_now: 315.0
  controller_id: 19
  ntc_temp_mos1: 0.0
  ntc_temp_mos2: 0.0
  ntc_temp_mos3: 0.0
  avg_vd: 0.006
  avg_vq: 0.003
---
header:
  stamp:
    sec: 1744978633
    nanosec: 736464757
  frame_id: ''
state:
  temp_fet: 0.0
  temp_motor: 0.0
  current_motor: 0.0
  current_input: 0.0
  avg_id: 0.0
  avg_iq: 0.0
  duty_cycle: 0.001
  speed: 0.0
  voltage_input: 11.9
  charge_drawn: 0.0248
  charge_regen: 0.0
  energy_drawn: 0.2953
  energy_regen: 0.0003
  displacement: 8978
  distance_traveled: 14502
  fault_code: 0
  pid_pos_now: 315.0
  controller_id: 19
  ntc_temp_mos1: 0.0
  ntc_temp_mos2: 0.0
  ntc_temp_mos3: 0.0
  avg_vd: 0.005
  avg_vq: 0.003
---
header:
  stamp:
    sec: 1744978633
    nanosec: 756755450
  frame_id: ''
state:
  temp_fet: 0.0
  temp_motor: 0.0
  current_motor: 0.0
  current_input: 0.0
  avg_id: 0.0
  avg_iq: 0.0
  duty_cycle: 0.0
  speed: 0.0
  voltage_input: 11.9
  charge_drawn: 0.0248
  charge_regen: 0.0
  energy_drawn: 0.2953
  energy_regen: 0.0003
  displacement: 8978
  distance_traveled: 14502
  fault_code: 0
  pid_pos_now: 314.997536
  controller_id: 19
  ntc_temp_mos1: 0.0
  ntc_temp_mos2: 0.0
  ntc_temp_mos3: 0.0
  avg_vd: 0.006
  avg_vq: 0.003
---
header:
  stamp:
    sec: 1744978633
    nanosec: 771340172
  frame_id: ''
state:
  temp_fet: 0.0
  temp_motor: 0.0
  current_motor: 0.0
  current_input: 0.0
  avg_id: 0.0
  avg_iq: 0.0
  duty_cycle: 0.001
  speed: 0.0
  voltage_input: 11.9
  charge_drawn: 0.0248
  charge_regen: 0.0
  energy_drawn: 0.2953
  energy_regen: 0.0003
  displacement: 8978
  distance_traveled: 14502
  fault_code: 0
  pid_pos_now: 315.004288
  controller_id: 19
  ntc_temp_mos1: 0.0
  ntc_temp_mos2: 0.0
  ntc_temp_mos3: 0.0
  avg_vd: 0.006
  avg_vq: 0.004
---
header:
  stamp:
    sec: 1744978633
    nanosec: 791051273
  frame_id: ''
state:
  temp_fet: 0.0
  temp_motor: 0.0
  current_motor: 0.0
  current_input: 0.0
  avg_id: 0.0
  avg_iq: 0.0
  duty_cycle: 0.001
  speed: 0.0
  voltage_input: 11.9
  charge_drawn: 0.0248
  charge_regen: 0.0
  energy_drawn: 0.2953
  energy_regen: 0.0003
  displacement: 8978
  distance_traveled: 14502
  fault_code: 0
  pid_pos_now: 315.0
  controller_id: 19
  ntc_temp_mos1: 0.0
  ntc_temp_mos2: 0.0
  ntc_temp_mos3: 0.0
  avg_vd: 0.006
  avg_vq: 0.003
---
header:
  stamp:
    sec: 1744978633
    nanosec: 811344237
  frame_id: ''
state:
  temp_fet: 0.0
  temp_motor: 0.0
  current_motor: 0.0
  current_input: 0.0
  avg_id: 0.0
  avg_iq: 0.0
  duty_cycle: 0.001
  speed: 0.0
  voltage_input: 11.9
  charge_drawn: 0.0248
  charge_regen: 0.0
  energy_drawn: 0.2953
  energy_regen: 0.0003
  displacement: 8978
  distance_traveled: 14502
  fault_code: 0
  pid_pos_now: 315.0
  controller_id: 19
  ntc_temp_mos1: 0.0
  ntc_temp_mos2: 0.0
  ntc_temp_mos3: 0.0
  avg_vd: 0.007
  avg_vq: 0.004
---
header:
  stamp:
    sec: 1744978633
    nanosec: 836233972
  frame_id: ''
state:
  temp_fet: 0.0
  temp_motor: 0.0
  current_motor: 0.0
  current_input: 0.0
  avg_id: 0.0
  avg_iq: 0.0
  duty_cycle: 0.001
  speed: 0.0
  voltage_input: 11.9
  charge_drawn: 0.0248
  charge_regen: 0.0
  energy_drawn: 0.2953
  energy_regen: 0.0003
  displacement: 8978
  distance_traveled: 14502
  fault_code: 0
  pid_pos_now: 315.004288
  controller_id: 19
  ntc_temp_mos1: 0.0
  ntc_temp_mos2: 0.0
  ntc_temp_mos3: 0.0
  avg_vd: 0.006
  avg_vq: 0.004
---
header:
  stamp:
    sec: 1744978633
    nanosec: 851206188
  frame_id: ''
state:
  temp_fet: 0.0
  temp_motor: 0.0
  current_motor: 0.0
  current_input: 0.0
  avg_id: 0.0
  avg_iq: 0.0
  duty_cycle: 0.0
  speed: 0.0
  voltage_input: 11.9
  charge_drawn: 0.0248
  charge_regen: 0.0
  energy_drawn: 0.2953
  energy_regen: 0.0003
  displacement: 8978
  distance_traveled: 14502
  fault_code: 0
  pid_pos_now: 314.995072
  controller_id: 19
  ntc_temp_mos1: 0.0
  ntc_temp_mos2: 0.0
  ntc_temp_mos3: 0.0
  avg_vd: 0.006
  avg_vq: 0.004
---
header:
  stamp:
    sec: 1744978633
    nanosec: 876127988
  frame_id: ''
state:
  temp_fet: 0.0
  temp_motor: 0.0
  current_motor: 0.0
  current_input: 0.0
  avg_id: 0.0
  avg_iq: 0.0
  duty_cycle: 0.0
  speed: 0.0
  voltage_input: 11.9
  charge_drawn: 0.0248
  charge_regen: 0.0
  energy_drawn: 0.2953
  energy_regen: 0.0003
  displacement: 8978
  distance_traveled: 14502
  fault_code: 0
  pid_pos_now: 315.004288
  controller_id: 19
  ntc_temp_mos1: 0.0
  ntc_temp_mos2: 0.0
  ntc_temp_mos3: 0.0
  avg_vd: 0.007
  avg_vq: 0.005
---
header:
  stamp:
    sec: 1744978633
    nanosec: 896319255
  frame_id: ''
state:
  temp_fet: 0.0
  temp_motor: 0.0
  current_motor: 0.0
  current_input: 0.0
  avg_id: 0.0
  avg_iq: 0.0
  duty_cycle: 0.0
  speed: 0.0
  voltage_input: 11.9
  charge_drawn: 0.0248
  charge_regen: 0.0
  energy_drawn: 0.2953
  energy_regen: 0.0003
  displacement: 8978
  distance_traveled: 14502
  fault_code: 0
  pid_pos_now: 315.025632
  controller_id: 19
  ntc_temp_mos1: 0.0
  ntc_temp_mos2: 0.0
  ntc_temp_mos3: 0.0
  avg_vd: 0.006
  avg_vq: 0.002
---
header:
  stamp:
    sec: 1744978633
    nanosec: 916191510
  frame_id: ''
state:
  temp_fet: 0.0
  temp_motor: 0.0
  current_motor: 0.0
  current_input: 0.0
  avg_id: 0.0
  avg_iq: 0.0
  duty_cycle: 0.001
  speed: 0.0
  voltage_input: 11.9
  charge_drawn: 0.0248
  charge_regen: 0.0
  energy_drawn: 0.2953
  energy_regen: 0.0003
  displacement: 8978
  distance_traveled: 14502
  fault_code: 0
  pid_pos_now: 315.008576
  controller_id: 19
  ntc_temp_mos1: 0.0
  ntc_temp_mos2: 0.0
  ntc_temp_mos3: 0.0
  avg_vd: 0.006
  avg_vq: 0.004
---
header:
  stamp:
    sec: 1744978633
    nanosec: 936233335
  frame_id: ''
state:
  temp_fet: 0.0
  temp_motor: 0.0
  current_motor: 0.0
  current_input: 0.0
  avg_id: 0.0
  avg_iq: 0.0
  duty_cycle: 0.001
  speed: 0.0
  voltage_input: 11.9
  charge_drawn: 0.0248
  charge_regen: 0.0
  energy_drawn: 0.2953
  energy_regen: 0.0003
  displacement: 8978
  distance_traveled: 14502
  fault_code: 0
  pid_pos_now: 315.0
  controller_id: 19
  ntc_temp_mos1: 0.0
  ntc_temp_mos2: 0.0
  ntc_temp_mos3: 0.0
  avg_vd: 0.006
  avg_vq: 0.003
---
header:
  stamp:
    sec: 1744978633
    nanosec: 955996980
  frame_id: ''
state:
  temp_fet: 0.0
  temp_motor: 0.0
  current_motor: 0.0
  current_input: 0.0
  avg_id: 0.0
  avg_iq: 0.0
  duty_cycle: 0.002
  speed: 0.0
  voltage_input: 11.9
  charge_drawn: 0.0248
  charge_regen: 0.0
  energy_drawn: 0.2953
  energy_regen: 0.0003
  displacement: 8978
  distance_traveled: 14502
  fault_code: 0
  pid_pos_now: 315.008544
  controller_id: 19
  ntc_temp_mos1: 0.0
  ntc_temp_mos2: 0.0
  ntc_temp_mos3: 0.0
  avg_vd: 0.006
  avg_vq: 0.004
---
header:
  stamp:
    sec: 1744978633
    nanosec: 971155663
  frame_id: ''
state:
  temp_fet: 0.0
  temp_motor: 0.0
  current_motor: 0.0
  current_input: 0.0
  avg_id: 0.0
  avg_iq: 0.0
  duty_cycle: 0.001
  speed: 0.0
  voltage_input: 11.9
  charge_drawn: 0.0248
  charge_regen: 0.0
  energy_drawn: 0.2953
  energy_regen: 0.0003
  displacement: 8978
  distance_traveled: 14502
  fault_code: 0
  pid_pos_now: 315.012832
  controller_id: 19
  ntc_temp_mos1: 0.0
  ntc_temp_mos2: 0.0
  ntc_temp_mos3: 0.0
  avg_vd: 0.006
  avg_vq: 0.004
---
header:
  stamp:
    sec: 1744978633
    nanosec: 996076470
  frame_id: ''
state:
  temp_fet: 0.0
  temp_motor: 0.0
  current_motor: 0.0
  current_input: 0.0
  avg_id: 0.0
  avg_iq: 0.0
  duty_cycle: -0.001
  speed: 0.0
  voltage_input: 11.9
  charge_drawn: 0.0248
  charge_regen: 0.0
  energy_drawn: 0.2953
  energy_regen: 0.0003
  displacement: 8978
  distance_traveled: 14502
  fault_code: 0
  pid_pos_now: 314.997568
  controller_id: 19
  ntc_temp_mos1: 0.0
  ntc_temp_mos2: 0.0
  ntc_temp_mos3: 0.0
  avg_vd: 0.006
  avg_vq: 0.003
---
header:
  stamp:
    sec: 1744978634
    nanosec: 11009902
  frame_id: ''
state:
  temp_fet: 0.0
  temp_motor: 0.0
  current_motor: 0.0
  current_input: 0.0
  avg_id: 0.0
  avg_iq: 0.0
  duty_cycle: 0.0
  speed: 0.0
  voltage_input: 11.9
  charge_drawn: 0.0248
  charge_regen: 0.0
  energy_drawn: 0.2953
  energy_regen: 0.0003
  displacement: 8978
  distance_traveled: 14502
  fault_code: 0
  pid_pos_now: 315.0
  controller_id: 19
  ntc_temp_mos1: 0.0
  ntc_temp_mos2: 0.0
  ntc_temp_mos3: 0.0
  avg_vd: 0.006
  avg_vq: 0.004
---
header:
  stamp:
    sec: 1744978634
    nanosec: 30966285
  frame_id: ''
state:
  temp_fet: 0.0
  temp_motor: 0.0
  current_motor: 0.0
  current_input: 0.0
  avg_id: 0.0
  avg_iq: 0.0
  duty_cycle: 0.0
  speed: 0.0
  voltage_input: 11.9
  charge_drawn: 0.0248
  charge_regen: 0.0
  energy_drawn: 0.2953
  energy_regen: 0.0003
  displacement: 8978
  distance_traveled: 14502
  fault_code: 0
  pid_pos_now: 315.00608
  controller_id: 19
  ntc_temp_mos1: 0.0
  ntc_temp_mos2: 0.0
  ntc_temp_mos3: 0.0
  avg_vd: 0.005
  avg_vq: 0.003
---
header:
  stamp:
    sec: 1744978634
    nanosec: 56273274
  frame_id: ''
state:
  temp_fet: 0.0
  temp_motor: 0.0
  current_motor: 0.0
  current_input: 0.0
  avg_id: 0.0
  avg_iq: 0.0
  duty_cycle: 0.001
  speed: 0.0
  voltage_input: 11.9
  charge_drawn: 0.0248
  charge_regen: 0.0
  energy_drawn: 0.2953
  energy_regen: 0.0003
  displacement: 8978
  distance_traveled: 14502
  fault_code: 0
  pid_pos_now: 315.017088
  controller_id: 19
  ntc_temp_mos1: 0.0
  ntc_temp_mos2: 0.0
  ntc_temp_mos3: 0.0
  avg_vd: 0.006
  avg_vq: 0.004
---
header:
  stamp:
    sec: 1744978634
    nanosec: 76049208
  frame_id: ''
state:
  temp_fet: 0.0
  temp_motor: 0.0
  current_motor: 0.0
  current_input: 0.0
  avg_id: 0.0
  avg_iq: 0.0
  duty_cycle: 0.001
  speed: 0.0
  voltage_input: 11.9
  charge_drawn: 0.0248
  charge_regen: 0.0
  energy_drawn: 0.2953
  energy_regen: 0.0003
  displacement: 8978
  distance_traveled: 14502
  fault_code: 0
  pid_pos_now: 315.0
  controller_id: 19
  ntc_temp_mos1: 0.0
  ntc_temp_mos2: 0.0
  ntc_temp_mos3: 0.0
  avg_vd: 0.006
  avg_vq: 0.003
---
header:
  stamp:
    sec: 1744978634
    nanosec: 91377365
  frame_id: ''
state:
  temp_fet: 0.0
  temp_motor: 0.0
  current_motor: 0.0
  current_input: 0.0
  avg_id: 0.0
  avg_iq: 0.0
  duty_cycle: -0.001
  speed: 0.0
  voltage_input: 11.9
  charge_drawn: 0.0248
  charge_regen: 0.0
  energy_drawn: 0.2953
  energy_regen: 0.0003
  displacement: 8978
  distance_traveled: 14502
  fault_code: 0
  pid_pos_now: 314.997568
  controller_id: 19
  ntc_temp_mos1: 0.0
  ntc_temp_mos2: 0.0
  ntc_temp_mos3: 0.0
  avg_vd: 0.006
  avg_vq: 0.003
---
header:
  stamp:
    sec: 1744978634
    nanosec: 116153946
  frame_id: ''
state:
  temp_fet: 0.0
  temp_motor: 0.0
  current_motor: 0.0
  current_input: 0.0
  avg_id: 0.0
  avg_iq: 0.0
  duty_cycle: 0.001
  speed: 0.0
  voltage_input: 11.9
  charge_drawn: 0.0248
  charge_regen: 0.0
  energy_drawn: 0.2953
  energy_regen: 0.0003
  displacement: 8978
  distance_traveled: 14502
  fault_code: 0
  pid_pos_now: 315.0
  controller_id: 19
  ntc_temp_mos1: 0.0
  ntc_temp_mos2: 0.0
  ntc_temp_mos3: 0.0
  avg_vd: 0.006
  avg_vq: 0.004
---
header:
  stamp:
    sec: 1744978634
    nanosec: 136174107
  frame_id: ''
state:
  temp_fet: 0.0
  temp_motor: 0.0
  current_motor: 0.0
  current_input: 0.0
  avg_id: 0.0
  avg_iq: 0.0
  duty_cycle: 0.001
  speed: 0.0
  voltage_input: 11.9
  charge_drawn: 0.0248
  charge_regen: 0.0
  energy_drawn: 0.2953
  energy_regen: 0.0003
  displacement: 8978
  distance_traveled: 14502
  fault_code: 0
  pid_pos_now: 315.000032
  controller_id: 19
  ntc_temp_mos1: 0.0
  ntc_temp_mos2: 0.0
  ntc_temp_mos3: 0.0
  avg_vd: 0.006
  avg_vq: 0.005
---
header:
  stamp:
    sec: 1744978634
    nanosec: 156524193
  frame_id: ''
state:
  temp_fet: 0.0
  temp_motor: 0.0
  current_motor: 0.0
  current_input: 0.0
  avg_id: 0.0
  avg_iq: 0.0
  duty_cycle: 0.0
  speed: 0.0
  voltage_input: 11.9
  charge_drawn: 0.0248
  charge_regen: 0.0
  energy_drawn: 0.2953
  energy_regen: 0.0003
  displacement: 8978
  distance_traveled: 14502
  fault_code: 0
  pid_pos_now: 315.047008
  controller_id: 19
  ntc_temp_mos1: 0.0
  ntc_temp_mos2: 0.0
  ntc_temp_mos3: 0.0
  avg_vd: 0.006
  avg_vq: 0.004
---
header:
  stamp:
    sec: 1744978634
    nanosec: 176505953
  frame_id: ''
state:
  temp_fet: 0.0
  temp_motor: 0.0
  current_motor: 0.0
  current_input: 0.0
  avg_id: 0.0
  avg_iq: 0.0
  duty_cycle: 0.001
  speed: 0.0
  voltage_input: 11.9
  charge_drawn: 0.0248
  charge_regen: 0.0
  energy_drawn: 0.2953
  energy_regen: 0.0003
  displacement: 8978
  distance_traveled: 14502
  fault_code: 0
  pid_pos_now: 315.0
  controller_id: 19
  ntc_temp_mos1: 0.0
  ntc_temp_mos2: 0.0
  ntc_temp_mos3: 0.0
  avg_vd: 0.006
  avg_vq: 0.004
---
header:
  stamp:
    sec: 1744978634
    nanosec: 196038395
  frame_id: ''
state:
  temp_fet: 0.0
  temp_motor: 0.0
  current_motor: 0.0
  current_input: 0.0
  avg_id: 0.0
  avg_iq: 0.0
  duty_cycle: 0.001
  speed: 0.0
  voltage_input: 11.9
  charge_drawn: 0.0248
  charge_regen: 0.0
  energy_drawn: 0.2953
  energy_regen: 0.0003
  displacement: 8978
  distance_traveled: 14502
  fault_code: 0
  pid_pos_now: 315.008544
  controller_id: 19
  ntc_temp_mos1: 0.0
  ntc_temp_mos2: 0.0
  ntc_temp_mos3: 0.0
  avg_vd: 0.006
  avg_vq: 0.004
---
header:
  stamp:
    sec: 1744978634
    nanosec: 216178301
  frame_id: ''
state:
  temp_fet: 0.0
  temp_motor: 0.0
  current_motor: 0.0
  current_input: 0.0
  avg_id: 0.0
  avg_iq: 0.0
  duty_cycle: 0.0
  speed: 0.0
  voltage_input: 11.9
  charge_drawn: 0.0248
  charge_regen: 0.0
  energy_drawn: 0.2953
  energy_regen: 0.0003
  displacement: 8978
  distance_traveled: 14502
  fault_code: 0
  pid_pos_now: 315.0
  controller_id: 19
  ntc_temp_mos1: 0.0
  ntc_temp_mos2: 0.0
  ntc_temp_mos3: 0.0
  avg_vd: 0.007
  avg_vq: 0.003
---
header:
  stamp:
    sec: 1744978634
    nanosec: 236117821
  frame_id: ''
state:
  temp_fet: 0.0
  temp_motor: 0.0
  current_motor: 0.0
  current_input: 0.0
  avg_id: 0.0
  avg_iq: 0.0
  duty_cycle: 0.001
  speed: 0.0
  voltage_input: 11.9
  charge_drawn: 0.0248
  charge_regen: 0.0
  energy_drawn: 0.2953
  energy_regen: 0.0003
  displacement: 8978
  distance_traveled: 14502
  fault_code: 0
  pid_pos_now: 315.02992
  controller_id: 19
  ntc_temp_mos1: 0.0
  ntc_temp_mos2: 0.0
  ntc_temp_mos3: 0.0
  avg_vd: 0.006
  avg_vq: 0.004
---
header:
  stamp:
    sec: 1744978634
    nanosec: 251369625
  frame_id: ''
state:
  temp_fet: 0.0
  temp_motor: 0.0
  current_motor: 0.0
  current_input: 0.0
  avg_id: 0.0
  avg_iq: 0.0
  duty_cycle: 0.001
  speed: 0.0
  voltage_input: 11.9
  charge_drawn: 0.0248
  charge_regen: 0.0
  energy_drawn: 0.2953
  energy_regen: 0.0003
  displacement: 8978
  distance_traveled: 14502
  fault_code: 0
  pid_pos_now: 315.02992
  controller_id: 19
  ntc_temp_mos1: 0.0
  ntc_temp_mos2: 0.0
  ntc_temp_mos3: 0.0
  avg_vd: 0.006
  avg_vq: 0.004
---
header:
  stamp:
    sec: 1744978634
    nanosec: 276074045
  frame_id: ''
state:
  temp_fet: 0.0
  temp_motor: 0.0
  current_motor: 0.0
  current_input: 0.0
  avg_id: 0.0
  avg_iq: 0.0
  duty_cycle: 0.0
  speed: 0.0
  voltage_input: 11.9
  charge_drawn: 0.0248
  charge_regen: 0.0
  energy_drawn: 0.2953
  energy_regen: 0.0003
  displacement: 8978
  distance_traveled: 14502
  fault_code: 0
  pid_pos_now: 315.004288
  controller_id: 19
  ntc_temp_mos1: 0.0
  ntc_temp_mos2: 0.0
  ntc_temp_mos3: 0.0
  avg_vd: 0.006
  avg_vq: 0.004
---
header:
  stamp:
    sec: 1744978634
    nanosec: 291892033
  frame_id: ''
state:
  temp_fet: 0.0
  temp_motor: 0.0
  current_motor: 0.0
  current_input: 0.0
  avg_id: 0.0
  avg_iq: 0.0
  duty_cycle: 0.0
  speed: 0.0
  voltage_input: 11.9
  charge_drawn: 0.0248
  charge_regen: 0.0
  energy_drawn: 0.2953
  energy_regen: 0.0003
  displacement: 8978
  distance_traveled: 14502
  fault_code: 0
  pid_pos_now: 315.004288
  controller_id: 19
  ntc_temp_mos1: 0.0
  ntc_temp_mos2: 0.0
  ntc_temp_mos3: 0.0
  avg_vd: 0.006
  avg_vq: 0.003
---
header:
  stamp:
    sec: 1744978634
    nanosec: 315958108
  frame_id: ''
state:
  temp_fet: 0.0
  temp_motor: 0.0
  current_motor: 0.0
  current_input: 0.0
  avg_id: 0.0
  avg_iq: 0.0
  duty_cycle: -0.001
  speed: 0.0
  voltage_input: 11.9
  charge_drawn: 0.0248
  charge_regen: 0.0
  energy_drawn: 0.2953
  energy_regen: 0.0003
  displacement: 8978
  distance_traveled: 14502
  fault_code: 0
  pid_pos_now: 314.997536
  controller_id: 19
  ntc_temp_mos1: 0.0
  ntc_temp_mos2: 0.0
  ntc_temp_mos3: 0.0
  avg_vd: 0.006
  avg_vq: 0.003
---
header:
  stamp:
    sec: 1744978634
    nanosec: 336425828
  frame_id: ''
state:
  temp_fet: 0.0
  temp_motor: 0.0
  current_motor: 0.0
  current_input: 0.0
  avg_id: 0.0
  avg_iq: 0.0
  duty_cycle: 0.001
  speed: 0.0
  voltage_input: 11.9
  charge_drawn: 0.0248
  charge_regen: 0.0
  energy_drawn: 0.2953
  energy_regen: 0.0003
  displacement: 8978
  distance_traveled: 14502
  fault_code: 0
  pid_pos_now: 315.012832
  controller_id: 19
  ntc_temp_mos1: 0.0
  ntc_temp_mos2: 0.0
  ntc_temp_mos3: 0.0
  avg_vd: 0.005
  avg_vq: 0.004
---
header:
  stamp:
    sec: 1744978634
    nanosec: 356181313
  frame_id: ''
state:
  temp_fet: 0.0
  temp_motor: 0.0
  current_motor: 0.0
  current_input: 0.0
  avg_id: 0.0
  avg_iq: 0.0
  duty_cycle: 0.001
  speed: 0.0
  voltage_input: 11.9
  charge_drawn: 0.0248
  charge_regen: 0.0
  energy_drawn: 0.2953
  energy_regen: 0.0003
  displacement: 8978
  distance_traveled: 14502
  fault_code: 0
  pid_pos_now: 315.017088
  controller_id: 19
  ntc_temp_mos1: 0.0
  ntc_temp_mos2: 0.0
  ntc_temp_mos3: 0.0
  avg_vd: 0.006
  avg_vq: 0.003
---
header:
  stamp:
    sec: 1744978634
    nanosec: 376222018
  frame_id: ''
state:
  temp_fet: 0.0
  temp_motor: 0.0
  current_motor: 0.0
  current_input: 0.0
  avg_id: 0.0
  avg_iq: 0.0
  duty_cycle: 0.001
  speed: 0.0
  voltage_input: 11.9
  charge_drawn: 0.0248
  charge_regen: 0.0
  energy_drawn: 0.2953
  energy_regen: 0.0003
  displacement: 8978
  distance_traveled: 14502
  fault_code: 0
  pid_pos_now: 315.0
  controller_id: 19
  ntc_temp_mos1: 0.0
  ntc_temp_mos2: 0.0
  ntc_temp_mos3: 0.0
  avg_vd: 0.005
  avg_vq: 0.004
---
header:
  stamp:
    sec: 1744978634
    nanosec: 396153665
  frame_id: ''
state:
  temp_fet: 0.0
  temp_motor: 0.0
  current_motor: 0.0
  current_input: 0.0
  avg_id: 0.0
  avg_iq: 0.0
  duty_cycle: 0.0
  speed: 0.0
  voltage_input: 11.9
  charge_drawn: 0.0248
  charge_regen: 0.0
  energy_drawn: 0.2953
  energy_regen: 0.0003
  displacement: 8978
  distance_traveled: 14502
  fault_code: 0
  pid_pos_now: 315.01936
  controller_id: 19
  ntc_temp_mos1: 0.0
  ntc_temp_mos2: 0.0
  ntc_temp_mos3: 0.0
  avg_vd: 0.007
  avg_vq: 0.004
---
header:
  stamp:
    sec: 1744978634
    nanosec: 416275620
  frame_id: ''
state:
  temp_fet: 0.0
  temp_motor: 0.0
  current_motor: 0.0
  current_input: 0.0
  avg_id: 0.0
  avg_iq: 0.0
  duty_cycle: 0.0
  speed: 0.0
  voltage_input: 11.9
  charge_drawn: 0.0248
  charge_regen: 0.0
  energy_drawn: 0.2953
  energy_regen: 0.0003
  displacement: 8978
  distance_traveled: 14502
  fault_code: 0
  pid_pos_now: 314.997536
  controller_id: 19
  ntc_temp_mos1: 0.0
  ntc_temp_mos2: 0.0
  ntc_temp_mos3: 0.0
  avg_vd: 0.006
  avg_vq: 0.005
---
header:
  stamp:
    sec: 1744978634
    nanosec: 431019160
  frame_id: ''
state:
  temp_fet: 0.0
  temp_motor: 0.0
  current_motor: 0.0
  current_input: 0.0
  avg_id: 0.0
  avg_iq: 0.0
  duty_cycle: 0.0
  speed: 0.0
  voltage_input: 11.9
  charge_drawn: 0.0248
  charge_regen: 0.0
  energy_drawn: 0.2953
  energy_regen: 0.0003
  displacement: 8978
  distance_traveled: 14502
  fault_code: 0
  pid_pos_now: 315.012832
  controller_id: 19
  ntc_temp_mos1: 0.0
  ntc_temp_mos2: 0.0
  ntc_temp_mos3: 0.0
  avg_vd: 0.005
  avg_vq: 0.004
---
header:
  stamp:
    sec: 1744978634
    nanosec: 456946798
  frame_id: ''
state:
  temp_fet: 0.0
  temp_motor: 0.0
  current_motor: 0.0
  current_input: 0.0
  avg_id: 0.0
  avg_iq: 0.0
  duty_cycle: 0.001
  speed: 0.0
  voltage_input: 11.9
  charge_drawn: 0.0248
  charge_regen: 0.0
  energy_drawn: 0.2953
  energy_regen: 0.0003
  displacement: 8978
  distance_traveled: 14502
  fault_code: 0
  pid_pos_now: 315.034176
  controller_id: 19
  ntc_temp_mos1: 0.0
  ntc_temp_mos2: 0.0
  ntc_temp_mos3: 0.0
  avg_vd: 0.006
  avg_vq: 0.003
---
header:
  stamp:
    sec: 1744978634
    nanosec: 476000673
  frame_id: ''
state:
  temp_fet: 0.0
  temp_motor: 0.0
  current_motor: 0.0
  current_input: 0.0
  avg_id: 0.0
  avg_iq: 0.0
  duty_cycle: 0.001
  speed: 0.0
  voltage_input: 11.9
  charge_drawn: 0.0248
  charge_regen: 0.0
  energy_drawn: 0.2953
  energy_regen: 0.0003
  displacement: 8978
  distance_traveled: 14502
  fault_code: 0
  pid_pos_now: 315.05552
  controller_id: 19
  ntc_temp_mos1: 0.0
  ntc_temp_mos2: 0.0
  ntc_temp_mos3: 0.0
  avg_vd: 0.006
  avg_vq: 0.004
---
header:
  stamp:
    sec: 1744978634
    nanosec: 496093347
  frame_id: ''
state:
  temp_fet: 0.0
  temp_motor: 0.0
  current_motor: 0.0
  current_input: 0.0
  avg_id: 0.0
  avg_iq: 0.0
  duty_cycle: 0.001
  speed: 0.0
  voltage_input: 11.9
  charge_drawn: 0.0248
  charge_regen: 0.0
  energy_drawn: 0.2953
  energy_regen: 0.0003
  displacement: 8978
  distance_traveled: 14502
  fault_code: 0
  pid_pos_now: 315.0
  controller_id: 19
  ntc_temp_mos1: 0.0
  ntc_temp_mos2: 0.0
  ntc_temp_mos3: 0.0
  avg_vd: 0.006
  avg_vq: 0.004
---
header:
  stamp:
    sec: 1744978634
    nanosec: 516444937
  frame_id: ''
state:
  temp_fet: 0.0
  temp_motor: 0.0
  current_motor: 0.0
  current_input: 0.0
  avg_id: 0.0
  avg_iq: 0.0
  duty_cycle: 0.001
  speed: 0.0
  voltage_input: 11.9
  charge_drawn: 0.0248
  charge_regen: 0.0
  energy_drawn: 0.2953
  energy_regen: 0.0003
  displacement: 8978
  distance_traveled: 14502
  fault_code: 0
  pid_pos_now: 314.995072
  controller_id: 19
  ntc_temp_mos1: 0.0
  ntc_temp_mos2: 0.0
  ntc_temp_mos3: 0.0
  avg_vd: 0.007
  avg_vq: 0.004
---
header:
  stamp:
    sec: 1744978634
    nanosec: 536092324
  frame_id: ''
state:
  temp_fet: 0.0
  temp_motor: 0.0
  current_motor: 0.0
  current_input: 0.0
  avg_id: 0.0
  avg_iq: 0.0
  duty_cycle: 0.001
  speed: 0.0
  voltage_input: 11.9
  charge_drawn: 0.0248
  charge_regen: 0.0
  energy_drawn: 0.2953
  energy_regen: 0.0003
  displacement: 8978
  distance_traveled: 14502
  fault_code: 0
  pid_pos_now: 315.0
  controller_id: 19
  ntc_temp_mos1: 0.0
  ntc_temp_mos2: 0.0
  ntc_temp_mos3: 0.0
  avg_vd: 0.007
  avg_vq: 0.003
---
header:
  stamp:
    sec: 1744978634
    nanosec: 550996763
  frame_id: ''
state:
  temp_fet: 0.0
  temp_motor: 0.0
  current_motor: 0.0
  current_input: 0.0
  avg_id: 0.0
  avg_iq: 0.0
  duty_cycle: 0.001
  speed: 0.0
  voltage_input: 11.9
  charge_drawn: 0.0248
  charge_regen: 0.0
  energy_drawn: 0.2953
  energy_regen: 0.0003
  displacement: 8978
  distance_traveled: 14502
  fault_code: 0
  pid_pos_now: 315.008544
  controller_id: 19
  ntc_temp_mos1: 0.0
  ntc_temp_mos2: 0.0
  ntc_temp_mos3: 0.0
  avg_vd: 0.006
  avg_vq: 0.004
---
header:
  stamp:
    sec: 1744978634
    nanosec: 571154974
  frame_id: ''
state:
  temp_fet: 0.0
  temp_motor: 0.0
  current_motor: 0.0
  current_input: 0.0
  avg_id: 0.0
  avg_iq: 0.0
  duty_cycle: 0.0
  speed: 0.0
  voltage_input: 11.9
  charge_drawn: 0.0248
  charge_regen: 0.0
  energy_drawn: 0.2953
  energy_regen: 0.0003
  displacement: 8978
  distance_traveled: 14502
  fault_code: 0
  pid_pos_now: 315.004288
  controller_id: 19
  ntc_temp_mos1: 0.0
  ntc_temp_mos2: 0.0
  ntc_temp_mos3: 0.0
  avg_vd: 0.005
  avg_vq: 0.003
---
header:
  stamp:
    sec: 1744978634
    nanosec: 596239848
  frame_id: ''
state:
  temp_fet: 0.0
  temp_motor: 0.0
  current_motor: 0.0
  current_input: 0.0
  avg_id: 0.0
  avg_iq: 0.0
  duty_cycle: 0.0
  speed: 0.0
  voltage_input: 11.9
  charge_drawn: 0.0248
  charge_regen: 0.0
  energy_drawn: 0.2953
  energy_regen: 0.0003
  displacement: 8978
  distance_traveled: 14502
  fault_code: 0
  pid_pos_now: 314.997568
  controller_id: 19
  ntc_temp_mos1: 0.0
  ntc_temp_mos2: 0.0
  ntc_temp_mos3: 0.0
  avg_vd: 0.007
  avg_vq: 0.003
---
header:
  stamp:
    sec: 1744978634
    nanosec: 616346058
  frame_id: ''
state:
  temp_fet: 0.0
  temp_motor: 0.0
  current_motor: 0.0
  current_input: 0.0
  avg_id: 0.0
  avg_iq: 0.0
  duty_cycle: 0.0
  speed: 0.0
  voltage_input: 11.9
  charge_drawn: 0.0248
  charge_regen: 0.0
  energy_drawn: 0.2953
  energy_regen: 0.0003
  displacement: 8978
  distance_traveled: 14502
  fault_code: 0
  pid_pos_now: 314.997568
  controller_id: 19
  ntc_temp_mos1: 0.0
  ntc_temp_mos2: 0.0
  ntc_temp_mos3: 0.0
  avg_vd: 0.006
  avg_vq: 0.003
---
header:
  stamp:
    sec: 1744978634
    nanosec: 631070174
  frame_id: ''
state:
  temp_fet: 0.0
  temp_motor: 0.0
  current_motor: 0.0
  current_input: 0.0
  avg_id: 0.0
  avg_iq: 0.0
  duty_cycle: 0.001
  speed: 0.0
  voltage_input: 11.9
  charge_drawn: 0.0248
  charge_regen: 0.0
  energy_drawn: 0.2953
  energy_regen: 0.0003
  displacement: 8978
  distance_traveled: 14502
  fault_code: 0
  pid_pos_now: 315.0
  controller_id: 19
  ntc_temp_mos1: 0.0
  ntc_temp_mos2: 0.0
  ntc_temp_mos3: 0.0
  avg_vd: 0.006
  avg_vq: 0.003
---
header:
  stamp:
    sec: 1744978634
    nanosec: 652572756
  frame_id: ''
state:
  temp_fet: 0.0
  temp_motor: 0.0
  current_motor: 0.0
  current_input: 0.0
  avg_id: 0.0
  avg_iq: 0.0
  duty_cycle: 0.0
  speed: 0.0
  voltage_input: 11.9
  charge_drawn: 0.0248
  charge_regen: 0.0
  energy_drawn: 0.2953
  energy_regen: 0.0003
  displacement: 8978
  distance_traveled: 14502
  fault_code: 0
  pid_pos_now: 315.04272
  controller_id: 19
  ntc_temp_mos1: 0.0
